{"html_attributions":[],"next_page_token":"AfLeUgOwJfgaw5Hd_di7jWpNBI2Map5N-Xlstyss1ym05-K8wfpSNBhEpB-MyVEVXYlnwiUuRZq1qYb_M-iaUtt-jqZYs9I257u6dVmQD9nSn1G1ldsE8M9BCqiCtwN3VFwZkrNUkKDxmgsxngCa5LhwfBDJLvPz_ouk2ZkOsGQBmN0MajKliLpRVaKoyGqCRy2XO8men1G__10CiQVdEgpGe0bBQR8KxMyZDBrf6lwgv0I8qdsDtJuYA9IUWU659sQHchiP93tI99XC8BZFqxtV9IwxZ8ui7o6KFzte2DxEiJlhqMqgsvUjD-IiMiYgTP_pDfJVgSBjzSj8TCqbb4nWeb-6MJhgiVF2Z395pb1x8noLvJBeR-ZxgNSEXPuEsjJ5aYwPniYOqx4-X3XbLKIIvBUZRJamPgsV7yUGEeZpxvHv","results":[{"geometry":{"location":{"lat":35.6803997,"lng":139.7690174},"viewport":{"northeast":{"lat":35.81744534519053,"lng":139.918874338966},"southwest":{"lat":35.51904202902757,"lng":139.5628610838164}}},"icon":"https://maps.gstatic.com/mapfiles/place_api/icons/v1/png_71/geocode-71.png","icon_background_color":"#7B9EB0","icon_mask_base_uri":"https://maps.gstatic.com/mapfiles/place_api/icons/v2/generic_pinlet","name":"Tokyo","photos":[{"height":1799,"html_attributions":["<a href=\"https://maps.google.com/maps/contrib/110543873949960736982\">saleem zaid</a>"],"photo_reference":"AfLeUgMenU_4u_OyGZnQZM0E2wxANnWbVp4tclXTePI4-Tc2ZkfFiPhscql2kmvRbM844UOMjL4qcbjOKltVJPCsaFrgp91qgEbTOJU0HFtpPyDNPS0ffT50-TjpdCsETnbTI4K6Q2MnLkEukIlC6UIErW2pgO0tPNh_KY2Scb6uW3gQXjDR","width":1080}],"place_id":"ChIJXSModoWLGGARILWiCfeu2M0","reference":"ChIJXSModoWLGGARILWiCfeu2M0","scope":"GOOGLE","types":["colloquial_area","locality","political"],"vicinity":"Tokyo"},{"business_status":"OPERATIONAL","geometry":{"location":{"lat":35.63417099999999,"lng":139.7134167},"viewport":{"northeast":{"lat":35.63553428029149,"lng":139.7147078302915},"southwest":{"lat":35.6328363197085,"lng":139.7120098697085}}},"icon":"https://maps.gstatic.com/mapfiles/place_api/icons/v1/png_71/lodging-71.png","icon_background_color":"#909CE1","icon_mask_base_uri":"https://maps.gstatic.com/mapfiles/place_api/icons/v2/hotel_pinlet","name":"Hotel Mid In Meguro Ekimae","photos":[{"height":2880,"html_attributions":["<a href=\"https://maps.google.com/maps/contrib/111298134419292079115\">sakura okuma</a>"],"photo_reference":"AfLeUgPzfEDGYXwVcLv7dudCeGG0NJWyE-mFebkbL_77un7pP_cmqNrpqbBDRcmIBOwcAN3yRX0wGfr1d4hFrv7nMri0SKCPad4c3zFjjnT04ZW8zAWHrZI7AWOWJfyiYjwGNlUutCkwmUFudKsb7g16voq0udg45CW1gCts2g1a9M9l3oS2","width":2160}],"place_id":"ChIJR5ZJ7xiLGGAR3bWuJRimL8U","plus_code":{"compound_code":"JPM7+M9 Meguro City, Tokyo, Japan","global_code":"8Q7XJPM7+M9"},"rating":3.5,"reference":"ChIJR5ZJ7xiLGGAR3bWuJRimL8U","scope":"GOOGLE","types":["lodging","point_of_interest","establishment"],"user_ratings_total":132,"vicinity":"1-chōme-2-19 Shimomeguro, Meguro City"},{"business_status":"OPERATIONAL","geometry":{"location":{"lat":35.6368258,"lng":139.7137994},"viewport":{"northeast":{"lat":35.6380949302915,"lng":139.7153578802915},"southwest":{"lat":35.6353969697085,"lng":139.7126599197085}}},"icon":"https://maps.gstatic.com/mapfiles/place_api/icons/v1/png_71/lodging-71.png","icon_background_color":"#909CE1","icon_mask_base_uri":"https://maps.gstatic.com/mapfiles/place_api/icons/v2/hotel_pinlet","name":"Hotel Princess Garden","photos":[{"height":2160,"html_attributions":["<a href=\"https://maps.google.com/maps/contrib/115365209007991200015\">ぴぴねこ</a>"],"photo_reference":"AfLeUgPBY8gaSh4xChCG8uRLZ1tCKhlGksfgOlotUsMof9jlFeb4xRgQhK4Uk8VZU7zkGEbpd5P3QWCmsL4K9lDNW5yUX-UE2P1RzDcoQgW3i9-CDgA8LyCjBp8q6-AHL0zP26DS_UNFVJM4Swv1DCaPal9uIy_U2LYyf9hFdgLyFCVqMDer","width":3840}],"place_id":"ChIJcfsdMhiLGGARjCeecAYbqCE","plus_code":{"compound_code":"JPP7+PG Shinagawa City, Tokyo, Japan","global_code":"8Q7XJPP7+PG"},"rating":3.4,"reference":"ChIJcfsdMhiLGGARjCeecAYbqCE","scope":"GOOGLE","types":["lodging","point_of_interest","establishment"],"user_ratings_total":627,"vicinity":"2-chōme-23-7 Kamiōsaki, Shinagawa City"},{"business_status":"OPERATIONAL","geometry":{"location":{"lat":35.6339773,"lng":139.7137202},"viewport":{"northeast":{"lat":35.63542958029149,"lng":139.7151431802915},"southwest":{"lat":35.6327316197085,"lng":139.7124452197085}}},"icon":"https://maps.gstatic.com/mapfiles/place_api/icons/v1/png_71/restaurant-71.png","icon_background_color":"#FF9E67","icon_mask_base_uri":"https://maps.gstatic.com/mapfiles/place_api/icons/v2/restaurant_pinlet","name":"Hungry Heaven Meguro","opening_hours":{"open_now":false},"photos":[{"height":1108,"html_attributions":["<a href=\"https://maps.google.com/maps/contrib/108446875978599210447\">ちほ</a>"],"photo_reference":"AfLeUgML4RtR9m9vPNmOJ5ti30xD5Ec2keDPYvP2QYFfHdYjJqfmAL-X-aU4SPA9VD0wpvlCAKKWJ711BKF9ITucQWCErS1pPbmCZFMqTjE2lIP1Xy6dWQA6kCcZOCbEseuoxejiflDWqUhg9YoKplp5b3pLzmEEUza0TB6WOfuFzwmFxLcQ","width":1478}],"place_id":"ChIJUVni3RiLGGARpH7JcN61Xyc","plus_code":{"compound_code":"JPM7+HF Meguro City, Tokyo, Japan","global_code":"8Q7XJPM7+HF"},"price_level":2,"rating":4.1,"reference":"ChIJUVni3RiLGGARpH7JcN61Xyc","scope":"GOOGLE","types":["restaurant","food","point_of_interest","establishment"],"user_ratings_total":650,"vicinity":"セザール目黒 2F, 1-chōme-2−２２ Shimomeguro, Meguro City"},{"business_status":"CLOSED_TEMPORARILY","geometry":{"location":{"lat":35.6340648,"lng":139.7158922},"viewport":{"northeast":{"lat":35.6354682802915,"lng":139.7173962302915},"southwest":{"lat":35.6327703197085,"lng":139.7146982697085}}},"icon":"https://maps.gstatic.com/mapfiles/place_api/icons/v1/png_71/restaurant-71.png","icon_background_color":"#FF9E67","icon_mask_base_uri":"https://maps.gstatic.com/mapfiles/place_api/icons/v2/restaurant_pinlet","name":"a la campagne Meguro 1F","permanently_closed":true,"photos":[{"height":350,"html_attributions":["<a href=\"https://maps.google.com/maps/contrib/106879959247203544814\">ア・ラ・カンパーニュ 目黒店</a>"],"photo_reference":"AfLeUgMeNmJ7YM9lb1KvJhTn8a_JH8dUWUxl9zLVFWO2nH-MW1wylbJIDimwRk4gTfNLrNagz7iE3tRA88NUmPQERZEGb3Q-zTPgd0JW2mwOfhCHIKwGCsHe4gwxkTxE7hyLpldIxZAgT7VtnhlrFc7JJLOPnX5soIod634mcUqBoSAlfu7x","width":470}],"place_id":"ChIJL0ReThmLGGARmTPfngRIY_M","plus_code":{"compound_code":"JPM8+J9 Shinagawa City, Tokyo, Japan","global_code":"8Q7XJPM8+J9"},"price_level":2,"rating":4,"reference":"ChIJL0ReThmLGGARmTPfngRIY_M","scope":"GOOGLE","types":["bakery","food","store","point_of_interest","establishment"],"user_ratings_total":64,"vicinity":"アトレ目黒1A館, 1F, 2-chōme-１６−９ Kamiōsaki, Shinagawa City品川区"},{"business_status":"OPERATIONAL","geometry":{"location":{"lat":35.6415837,"lng":139.7154177},"viewport":{"northeast":{"lat":35.6431170802915,"lng":139.7167278302915},"southwest":{"lat":35.6404191197085,"lng":139.7140298697085}}},"icon":"https://maps.gstatic.com/mapfiles/place_api/icons/v1/png_71/lodging-71.png","icon_background_color":"#909CE1","icon_mask_base_uri":"https://maps.gstatic.com/mapfiles/place_api/icons/v2/hotel_pinlet","name":"The Westin Tokyo","photos":[{"height":810,"html_attributions":["<a href=\"https://maps.google.com/maps/contrib/100135498071067864868\">The Westin Tokyo</a>"],"photo_reference":"AfLeUgMO2HTON1QZeSxMrqrd00eijBDB-CBB-VjmTRcb7uhHXAbZUDZu-pVCx94i5Hw5Mt5OfWAyPkNuXglfRj5j-6UspKQffZVc_HaHMGbSNSM34UWpV4aQvH78xRj7ymy2xJdXojbBQhgM1qVW6XbXsYSQf0dJH7ktEG1_UMDL2Dc6MI-t","width":1440}],"place_id":"ChIJO4Ou6haLGGARdRY9-ojhl74","plus_code":{"compound_code":"JPR8+J5 Meguro City, Tokyo, Japan","global_code":"8Q7XJPR8+J5"},"rating":4.3,"reference":"ChIJO4Ou6haLGGARdRY9-ojhl74","scope":"GOOGLE","types":["lodging","point_of_interest","establishment"],"user_ratings_total":4831,"vicinity":"1-chōme-4-1 Mita, Meguro City"},{"business_status":"OPERATIONAL","geometry":{"location":{"lat":35.6419444,"lng":139.7133333},"viewport":{"northeast":{"lat":35.6434571302915,"lng":139.7142343302915},"southwest":{"lat":35.6407591697085,"lng":139.7115363697085}}},"icon":"https://maps.gstatic.com/mapfiles/place_api/icons/v1/png_71/restaurant-71.png","icon_background_color":"#FF9E67","icon_mask_base_uri":"https://maps.gstatic.com/mapfiles/place_api/icons/v2/restaurant_pinlet","name":"Hana Chibo Okonomiyaki","opening_hours":{"open_now":false},"photos":[{"height":426,"html_attributions":["<a href=\"https://maps.google.com/maps/contrib/106199168971244337589\">華 千房 恵比寿ガーデンプレイス店</a>"],"photo_reference":"AfLeUgOB7ntPvLiA_5wNRSQAuwAGw6cgznx1AUtVgb_mPehOzBX3dphH9c46dNKPMunpjsfJaSeOlBI7GWKz1WA0VC4jhxxwsY3J3QIMbnusDt2SzFcj_Z9q89VuZ5MBuIPT6bvkdVC8lCLiQZDVqbVwFJIS_va_RdRtnibrLrCAQoeojjjU","width":640}],"place_id":"ChIJzW-R2hWLGGARgN9Xw36Zi5Q","plus_code":{"compound_code":"JPR7+Q8 Shibuya City, Tokyo, Japan","global_code":"8Q7XJPR7+Q8"},"price_level":2,"rating":3.8,"reference":"ChIJzW-R2hWLGGARgN9Xw36Zi5Q","scope":"GOOGLE","types":["restaurant","food","point_of_interest","establishment"],"user_ratings_total":122,"vicinity":"ガーデンプレイスタワー３８F, 4-chōme-20−３ Ebisu, Shibuya City"},{"business_status":"OPERATIONAL","geometry":{"location":{"lat":35.6420263,"lng":139.7132427},"viewport":{"northeast":{"lat":35.64327378029149,"lng":139.7143222302915},"southwest":{"lat":35.6405758197085,"lng":139.7116242697085}}},"icon":"https://maps.gstatic.com/mapfiles/place_api/icons/v1/png_71/restaurant-71.png","icon_background_color":"#FF9E67","icon_mask_base_uri":"https://maps.gstatic.com/mapfiles/place_api/icons/v2/restaurant_pinlet","name":"Sushi Taka Ebisu Garden Place Tower 38F","opening_hours":{"open_now":false},"photos":[{"height":3024,"html_attributions":["<a href=\"https://maps.google.com/maps/contrib/104694583236609319710\">Bull Dogg</a>"],"photo_reference":"AfLeUgPbywtQCKFkqLoTxKVrg9Q7fgPxplaBesgSFuXSSApA-w_x1PLJBPh5vFQMfuIibRSLXC44gcNrmPHW0YGoYFD1ZsOFRzpuQ0WFvVcACDWMfCCHrIzZniYlBtVjA-ItrmSvSTpe4vEeet7KL7RxUqcGp0nkL8TIeiAeS1d-oyG31FZY","width":4032}],"place_id":"ChIJzW-R2hWLGGARJUTTVjGkSsY","plus_code":{"compound_code":"JPR7+R7 Shibuya City, Tokyo, Japan","global_code":"8Q7XJPR7+R7"},"price_level":2,"rating":3.9,"reference":"ChIJzW-R2hWLGGARJUTTVjGkSsY","scope":"GOOGLE","types":["meal_takeaway","restaurant","food","point_of_interest","establishment"],"user_ratings_total":104,"vicinity":"恵比寿ガーデンプレイスタワー38階, 4-chōme-20−３ Ebisu, Shibuya City"},{"business_status":"OPERATIONAL","geometry":{"location":{"lat":35.6396926,"lng":139.7112703},"viewport":{"northeast":{"lat":35.64103743029149,"lng":139.7126273302915},"southwest":{"lat":35.6383394697085,"lng":139.7099293697085}}},"icon":"https://maps.gstatic.com/mapfiles/place_api/icons/v1/png_71/restaurant-71.png","icon_background_color":"#FF9E67","icon_mask_base_uri":"https://maps.gstatic.com/mapfiles/place_api/icons/v2/restaurant_pinlet","name":"Ramen Tai","opening_hours":{"open_now":false},"photos":[{"height":3024,"html_attributions":["<a href=\"https://maps.google.com/maps/contrib/109865897640939782982\">m m</a>"],"photo_reference":"AfLeUgOJe4MkTeru-DhdogHLcNlC6FF6rOmtX5PI3EJE9h3v8l87n40XEq-_h0TxMLjXvS2_LW7OuzCoy4LbKv_dFDqlTdDNANlO3Hm-Xtkt_fdQwAJHXzjfDxrMiHWS7pHDqAVK8eVqs1O4KAryrc2fKzTJoYT8SYT9TPSF92a7xrv8qAxn","width":4032}],"place_id":"ChIJD7eMjD2LGGARstWHVxZGMMI","plus_code":{"compound_code":"JPQ6+VG Meguro City, Tokyo, Japan","global_code":"8Q7XJPQ6+VG"},"price_level":1,"rating":4.2,"reference":"ChIJD7eMjD2LGGARstWHVxZGMMI","scope":"GOOGLE","types":["restaurant","food","point_of_interest","establishment"],"user_ratings_total":179,"vicinity":"2-chōme-7-18 Mita, Meguro City"},{"business_status":"OPERATIONAL","geometry":{"location":{"lat":35.6359331,"lng":139.7060162},"viewport":{"northeast":{"lat":35.6372988802915,"lng":139.7073743302915},"southwest":{"lat":35.6346009197085,"lng":139.7046763697085}}},"icon":"https://maps.gstatic.com/mapfiles/place_api/icons/v1/png_71/restaurant-71.png","icon_background_color":"#FF9E67","icon_mask_base_uri":"https://maps.gstatic.com/mapfiles/place_api/icons/v2/restaurant_pinlet","name":"gentille","opening_hours":{"open_now":false},"photos":[{"height":3024,"html_attributions":["<a href=\"https://maps.google.com/maps/contrib/103364499124302662540\">うんじEUNJI NAM</a>"],"photo_reference":"AfLeUgOhQblOWGcTO01Pv1LBUzO0d09hGNFUBVfvP9wRo2fdutBSUaFbJNWtL92F1yC5DizmWGcAgaH2iXekesbbPZTbohzi6JEDSWCj0xw7wke_UhJ6LePKjRoV_JDfnBOFo-UlxmbI9OvZ8WgylurDVFP0QR3M_zlVoLA6Io2Z8FlbAmkZ","width":4032}],"place_id":"ChIJh05HZDuLGGAR9HpQ05rKQMc","plus_code":{"compound_code":"JPP4+9C Meguro City, Tokyo, Japan","global_code":"8Q7XJPP4+9C"},"price_level":2,"rating":3.8,"reference":"ChIJh05HZDuLGGAR9HpQ05rKQMc","scope":"GOOGLE","types":["bakery","food","store","point_of_interest","establishment"],"user_ratings_total":157,"vicinity":"3-chōme-1-1 Meguro, Meguro City"},{"business_status":"OPERATIONAL","geometry":{"location":{"lat":35.6333315,"lng":139.7093151},"viewport":{"northeast":{"lat":35.6346139802915,"lng":139.7107187802915},"southwest":{"lat":35.6319160197085,"lng":139.7080208197085}}},"icon":"https://maps.gstatic.com/mapfiles/place_api/icons/v1/png_71/generic_business-71.png","icon_background_color":"#7B9EB0","icon_mask_base_uri":"https://maps.gstatic.com/mapfiles/place_api/icons/v2/generic_pinlet","name":"権之助坂スタジオ","opening_hours":{"open_now":true},"photos":[{"height":4032,"html_attributions":["<a href=\"https://maps.google.com/maps/contrib/105726870239350480579\">Amalia Evstratova</a>"],"photo_reference":"AfLeUgNNYIY1LeqVv3dOBixCCZJdAFt1bAAhJsxe03JF-Dn6tuD4bgS8koymfaRcl3vO5AtjRCu9z8R9pac9PdAnOjIQpii9eHLBIBdiihSmLQKij-3iW-43RtIsRxe3ET5eTE_H1Y93DRwhJ9cOQjtcWj6tkykDe-hrlVqmKtikungkDrBy","width":3024}],"place_id":"ChIJOS3jVSKLGGARVpfJKH2Asb4","plus_code":{"compound_code":"JPM5+8P Meguro City, Tokyo, Japan","global_code":"8Q7XJPM5+8P"},"rating":4,"reference":"ChIJOS3jVSKLGGARVpfJKH2Asb4","scope":"GOOGLE","types":["point_of_interest","establishment"],"user_ratings_total":19,"vicinity":"2-chōme-9-6 Meguro, 目黒区 Meguro City"},{"business_status":"OPERATIONAL","geometry":{"location":{"lat":35.6310471,"lng":139.7151523},"viewport":{"northeast":{"lat":35.63243693029149,"lng":139.7167261802915},"southwest":{"lat":35.6297389697085,"lng":139.7140282197085}}},"icon":"https://maps.gstatic.com/mapfiles/place_api/icons/v1/png_71/school-71.png","icon_background_color":"#7B9EB0","icon_mask_base_uri":"https://maps.gstatic.com/mapfiles/place_api/icons/v2/school_pinlet","name":"杉野学園ドレスメーカー学院第二校舎","photos":[{"height":2160,"html_attributions":["<a href=\"https://maps.google.com/maps/contrib/117301545263790514230\">TARO SHIBUYA</a>"],"photo_reference":"AfLeUgNUplPucCwRoKcsccq0hV-eWPNh8OAeLFBMkUqBQO-1pKdHMs7LKTt3eJU_I9eVf0U7bZg211tsRZoa2_cNecQk9Y1rwpdP4vIjtNxzkZMEXFo02y_j1BQ7U_DfV2kwqY0UKk1CX00EQokAwjQ-LjF1d0_hxUwzG9G3as3TGJAA4F__","width":2160}],"place_id":"ChIJwWM0Xx6LGGAR0-LOYAHIOGw","plus_code":{"compound_code":"JPJ8+C3 Shinagawa City, Tokyo, Japan","global_code":"8Q7XJPJ8+C3"},"rating":1,"reference":"ChIJwWM0Xx6LGGAR0-LOYAHIOGw","scope":"GOOGLE","types":["school","point_of_interest","establishment"],"user_ratings_total":1,"vicinity":"5 Chome, Shinagawa City"},{"business_status":"OPERATIONAL","geometry":{"location":{"lat":35.6346324,"lng":139.7124305},"viewport":{"northeast":{"lat":35.6359296802915,"lng":139.7137534302915},"southwest":{"lat":35.6332317197085,"lng":139.7110554697085}}},"icon":"https://maps.gstatic.com/mapfiles/place_api/icons/v1/png_71/restaurant-71.png","icon_background_color":"#FF9E67","icon_mask_base_uri":"https://maps.gstatic.com/mapfiles/place_api/icons/v2/restaurant_pinlet","name":"大陸食堂","opening_hours":{"open_now":false},"photos":[{"height":3712,"html_attributions":["<a href=\"https://maps.google.com/maps/contrib/114626470231110504083\">大陸食堂</a>"],"photo_reference":"AfLeUgPOPMAkebzNGqG21tXFNiVUYsbaasdNlybKM1CMhjn1KgxDHCfIN8ZNgY72HWm0LI1Xgk4TJTtAJMTfn2kLaEHhVlZ6JLW4W78Y5Cu0_U-mh5ULrenqgvIh6TKpuTAvN-UyV59irJ3uGZo1Tq3CciJ-cppmgMOtnOdiBKe9PlwC1DJK","width":5568}],"place_id":"ChIJKxn3YhiLGGARbqnsWsqVLWs","plus_code":{"compound_code":"JPM6+VX Meguro City, Tokyo, Japan","global_code":"8Q7XJPM6+VX"},"price_level":2,"rating":3.7,"reference":"ChIJKxn3YhiLGGARbqnsWsqVLWs","scope":"GOOGLE","types":["restaurant","food","point_of_interest","establishment"],"user_ratings_total":210,"vicinity":"1-chōme-5-19 Meguro, Meguro City"},{"business_status":"OPERATIONAL","geometry":{"location":{"lat":35.63410930000001,"lng":139.713713},"viewport":{"northeast":{"lat":35.6354766802915,"lng":139.7151395802915},"southwest":{"lat":35.6327787197085,"lng":139.7124416197085}}},"icon":"https://maps.gstatic.com/mapfiles/place_api/icons/v1/png_71/cafe-71.png","icon_background_color":"#FF9E67","icon_mask_base_uri":"https://maps.gstatic.com/mapfiles/place_api/icons/v2/cafe_pinlet","name":"ITOH ya coffee shop","opening_hours":{"open_now":true},"photos":[{"height":3024,"html_attributions":["<a href=\"https://maps.google.com/maps/contrib/107533922550764383355\">「全国モクモク場所探し」けいご</a>"],"photo_reference":"AfLeUgMtpKgpIyvZwy5ixgWf3QH7qpqWakM-M6xZneMkH5ynrxhmSiuyy67hpYLXfta8JYWeAa9P-iMJhvq5VLoOUtaVFDmTWSYGDmMRTPAjnidCiT1bxk-i439YuQePN3_007EZzcY10TdmjLPCYu3iUxWPR-U208oVKrUe_J0K8MR0_llX","width":4032}],"place_id":"ChIJUVni3RiLGGARaG-kcRXnymc","plus_code":{"compound_code":"JPM7+JF Meguro City, Tokyo, Japan","global_code":"8Q7XJPM7+JF"},"price_level":2,"rating":4,"reference":"ChIJUVni3RiLGGARaG-kcRXnymc","scope":"GOOGLE","types":["cafe","food","store","point_of_interest","establishment"],"user_ratings_total":150,"vicinity":"1-chōme-2-22 Shimomeguro, Meguro City"},{"business_status":"OPERATIONAL","geometry":{"location":{"lat":35.6347411,"lng":139.7160844},"viewport":{"northeast":{"lat":35.6361017302915,"lng":139.7174846802915},"southwest":{"lat":35.6334037697085,"lng":139.7147867197085}}},"icon":"https://maps.gstatic.com/mapfiles/place_api/icons/v1/png_71/restaurant-71.png","icon_background_color":"#FF9E67","icon_mask_base_uri":"https://maps.gstatic.com/mapfiles/place_api/icons/v2/restaurant_pinlet","name":"Tendon Tenya","opening_hours":{"open_now":true},"photos":[{"height":4032,"html_attributions":["<a href=\"https://maps.google.com/maps/contrib/116289087708817938757\">DK F</a>"],"photo_reference":"AfLeUgNPVdKrH6Y6ZoaBc3ci5ElqPgkz2SnRo5mghOOy1MjtbKkhK_g5eoGzCKAGnpLOSsvqiWkHXIpmU9hRPmrA4QcudOWF9vgaBA0bYG9Gr8ptmMofMb-CjX2f5hNucuenSymbTv9DRg1WV_ORFwQLbBo3qdYBHJPahNXY0ecliJHSuruV","width":3024}],"place_id":"ChIJzWXUXBmLGGAReFt00huiBjo","plus_code":{"compound_code":"JPM8+VC Shinagawa City, Tokyo, Japan","global_code":"8Q7XJPM8+VC"},"price_level":1,"rating":3.5,"reference":"ChIJzWXUXBmLGGAReFt00huiBjo","scope":"GOOGLE","types":["restaurant","food","point_of_interest","establishment"],"user_ratings_total":405,"vicinity":"Koyo Building, 1F, 2-chōme-16−４ Kamiōsaki, Shinagawa City"},{"business_status":"OPERATIONAL","geometry":{"location":{"lat":35.6307647,"lng":139.7139304},"viewport":{"northeast":{"lat":35.63213193029149,"lng":139.7153188802915},"southwest":{"lat":35.6294339697085,"lng":139.7126209197085}}},"icon":"https://maps.gstatic.com/mapfiles/place_api/icons/v1/png_71/restaurant-71.png","icon_background_color":"#FF9E67","icon_mask_base_uri":"https://maps.gstatic.com/mapfiles/place_api/icons/v2/restaurant_pinlet","name":"New American Grill “KANADE TERRACE”","opening_hours":{"open_now":false},"photos":[{"height":2667,"html_attributions":["<a href=\"https://maps.google.com/maps/contrib/107258718863728592561\">KANADE TERRACE</a>"],"photo_reference":"AfLeUgMGu71UidNQQR2t6SjIePSCMDZzaH8teUZMf1mHg910tKBhT66K_oUcmgb4x_cgLmmsOKd9dX9Wf_sjr3HE1zSmyjc1MqagGXw_50ejZ0QZN9LAvItUQJEwTVHfXbil2H5PvCuejpnE0EPLvGlv5_NRiVqik8ZqVgR2vDAesF2_jB-u","width":4000}],"place_id":"ChIJx0sxHB-LGGARpFBANul9NtM","plus_code":{"compound_code":"JPJ7+8H Meguro City, Tokyo, Japan","global_code":"8Q7XJPJ7+8H"},"price_level":2,"rating":4.2,"reference":"ChIJx0sxHB-LGGARpFBANul9NtM","scope":"GOOGLE","types":["restaurant","food","point_of_interest","establishment"],"user_ratings_total":288,"vicinity":"1-chōme-8-1 Shimomeguro, Meguro City"},{"business_status":"OPERATIONAL","geometry":{"location":{"lat":35.6330358,"lng":139.709427},"viewport":{"northeast":{"lat":35.6343783302915,"lng":139.7108067302915},"southwest":{"lat":35.6316803697085,"lng":139.7081087697085}}},"icon":"https://maps.gstatic.com/mapfiles/place_api/icons/v1/png_71/restaurant-71.png","icon_background_color":"#FF9E67","icon_mask_base_uri":"https://maps.gstatic.com/mapfiles/place_api/icons/v2/restaurant_pinlet","name":"LAND","opening_hours":{"open_now":false},"photos":[{"height":451,"html_attributions":["<a href=\"https://maps.google.com/maps/contrib/106676732613255999684\">LAND</a>"],"photo_reference":"AfLeUgPtBVoQR9civoQQ-vv2yjFo2mmyv_hA7n3qZIfMRU0IfS6Fv79sYTgXigy1WV0LDtMUj3HOQLz0jwt1WqZvMa_hv3NRaaU3C89yMglhHQQr2UmHhctN-7B80a0TeIIFiH5K_AunNGhpJDM646qG9k5UvRlTHqqN0BUnlEOiGMyfO0W1","width":800}],"place_id":"ChIJcdp2USKLGGARMp5ZLeGuHiE","plus_code":{"compound_code":"JPM5+6Q Meguro City, Tokyo, Japan","global_code":"8Q7XJPM5+6Q"},"price_level":2,"rating":4.3,"reference":"ChIJcdp2USKLGGARMp5ZLeGuHiE","scope":"GOOGLE","types":["restaurant","food","point_of_interest","establishment"],"user_ratings_total":306,"vicinity":"セントヒルズ目黒 2F, 2-chōme-21−２８ Shimomeguro, Meguro City"},{"business_status":"OPERATIONAL","geometry":{"location":{"lat":35.6342948,"lng":139.7121612},"viewport":{"northeast":{"lat":35.6356974302915,"lng":139.7134784302915},"southwest":{"lat":35.6329994697085,"lng":139.7107804697085}}},"icon":"https://maps.gstatic.com/mapfiles/place_api/icons/v1/png_71/restaurant-71.png","icon_background_color":"#FF9E67","icon_mask_base_uri":"https://maps.gstatic.com/mapfiles/place_api/icons/v2/restaurant_pinlet","name":"Chinmaya Meguro","opening_hours":{"open_now":false},"photos":[{"height":2400,"html_attributions":["<a href=\"https://maps.google.com/maps/contrib/104414973174451180372\">陳麻家 目黒店</a>"],"photo_reference":"AfLeUgPgGtnZNo3-19urLSz4MgwERFG-3lnUgbcUyL9oHtIqeBCuur1mbywXqPYuKZkgXVJOEnqFEpD3vP7uJ-tkYxXo_4jMW9tjvckHKZFUDx0kdiZOSgQAwHCet6tObOVRm4MkduPucVJU_Q5vBrPpgZNzfuKM7YGxoC3n9crlwrCjVdUi","width":3600}],"place_id":"ChIJT0MehhiLGGARrMJ-RCbFEmk","plus_code":{"compound_code":"JPM6+PV Meguro City, Tokyo, Japan","global_code":"8Q7XJPM6+PV"},"price_level":2,"rating":3.8,"reference":"ChIJT0MehhiLGGARrMJ-RCbFEmk","scope":"GOOGLE","types":["restaurant","food","point_of_interest","establishment"],"user_ratings_total":197,"vicinity":"1-chōme-5-20 Shimomeguro, Meguro City"},{"business_status":"OPERATIONAL","geometry":{"location":{"lat":35.6342187,"lng":139.7140603},"viewport":{"northeast":{"lat":35.63552248029151,"lng":139.7153797802915},"southwest":{"lat":35.63282451970851,"lng":139.7126818197085}}},"icon":"https://maps.gstatic.com/mapfiles/place_api/icons/v1/png_71/restaurant-71.png","icon_background_color":"#FF9E67","icon_mask_base_uri":"https://maps.gstatic.com/mapfiles/place_api/icons/v2/restaurant_pinlet","name":"Ichirin Spicy Noodles Meguro","opening_hours":{"open_now":false},"photos":[{"height":538,"html_attributions":["<a href=\"https://maps.google.com/maps/contrib/109804816553101656809\">辛麺屋 一輪 目黒店</a>"],"photo_reference":"AfLeUgOQthjnpevrxO8SIKWoHJ0XlMX-zWHWUE_tguANXP2Y9VrapQvVvxliRxUeSDk8ZFHo9DtrnvFW4rtm2-D5wtx6Ov0LL2igLHQZYeT5iujsG-qNhjxH9y-rn3roWW0x072xz__0yruiSSiWnpbDBzOAnT4wDfqJtv2iURhQ1WpZpZ8K","width":807}],"place_id":"ChIJ21HpHxmLGGAR1OMDGlVqIv8","plus_code":{"compound_code":"JPM7+MJ Meguro City, Tokyo, Japan","global_code":"8Q7XJPM7+MJ"},"price_level":2,"rating":3.7,"reference":"ChIJ21HpHxmLGGAR1OMDGlVqIv8","scope":"GOOGLE","types":["restaurant","food","point_of_interest","establishment"],"user_ratings_total":330,"vicinity":"脇田ビル 1F, 1-chōme-4−８ Meguro, Meguro City"},{"geometry":{"location":{"lat":35.65808130000001,"lng":139.7515077},"viewport":{"northeast":{"lat":35.68270876520896,"lng":139.7819884821575},"southwest":{"lat":35.62288889971529,"lng":139.708744908729}}},"icon":"https://maps.gstatic.com/mapfiles/place_api/icons/v1/png_71/geocode-71.png","icon_background_color":"#7B9EB0","icon_mask_base_uri":"https://maps.gstatic.com/mapfiles/place_api/icons/v2/generic_pinlet","name":"Minato City","photos":[{"height":4032,"html_attributions":["<a href=\"https://maps.google.com/maps/contrib/100458463861154420797\">BON Bon</a>"],"photo_reference":"AfLeUgPH0QA_lm6qxgZXt5G4ivJrouig4BvyOSge7x_gUYKobuRDJkL0V-O7rDRGCTMkp9JQ2wFkp2iw0o22SQUhJC24h4-1omrLO8ojKBIdPHO2xTQZFufaM3Sah0eqMnMB7K4wXGJN9JxrbtY1MZzezItOxyByEmSiY_WDqi122SBnXBU-","width":3024}],"place_id":"ChIJ8yIZtLuLGGARrGzw8nX96zM","reference":"ChIJ8yIZtLuLGGARrGzw8nX96zM","scope":"GOOGLE","types":["locality","political"],"vicinity":"Minato City"}],"status":"OK"}
