{"html_attributions":[],"next_page_token":"AfLeUgNjs9qQ7OOP49rdEHAKgi9v1KsjlGhbgUjE6st6yLbFph5ok9WtUOPSKZBMdqRJQKtMtOgpOLbuTe-dnC6S-Vn29k7ygBFdWsaO6_qui0aL2euAexsjG4ozSXVhshLbhUS9pvRosfRi1U77nIWQKU2RHIVmlTrLfaeCHsfQwV4qCj19mnVfQganlO68NAauaO1JAN4pFelhZo5xBG4ix8MaFffcZD9NyWPIsGZF0EBBD_u85ugnLu5Ee7u-XYzk5SKI1ImtP2XMvFIH9z58TUS1ewEWy618i6Fr7SBIkQgExSSrP3bT9f1Ws7wMwrefTly0Vs52giLo56UiXCYJ4okXG3BBRfYO_GXZKKMurk2dBaG-J6eRJAhZ6bci-7Tzn1MTBiNhYYMd1omdFgsm6PxE_tm1x8FXtJGD4WdprUz5","results":[{"geometry":{"location":{"lat":35.6803997,"lng":139.7690174},"viewport":{"northeast":{"lat":35.81744534519053,"lng":139.918874338966},"southwest":{"lat":35.51904202902757,"lng":139.5628610838164}}},"icon":"https://maps.gstatic.com/mapfiles/place_api/icons/v1/png_71/geocode-71.png","icon_background_color":"#7B9EB0","icon_mask_base_uri":"https://maps.gstatic.com/mapfiles/place_api/icons/v2/generic_pinlet","name":"Tokyo","photos":[{"height":1799,"html_attributions":["<a href=\"https://maps.google.com/maps/contrib/110543873949960736982\">saleem zaid</a>"],"photo_reference":"AfLeUgNYYOcCc9GovD4rqrIDR2Gt7O8VIHfDHgPN3GbmpKQRtPAEtvED827uL8zSJEYOVsGhKOawKotZlQMCVw0_UlU8pCkkpsvehwBtTiK9V9EiXb38wG3PI9Y2TygK9OK5NK3-Cu1KvfEjq1_LsuK9b8ur7Aec36X5ITArM2jqGUm0oYol","width":1080}],"place_id":"ChIJXSModoWLGGARILWiCfeu2M0","reference":"ChIJXSModoWLGGARILWiCfeu2M0","scope":"GOOGLE","types":["colloquial_area","locality","political"],"vicinity":"Tokyo"},{"business_status":"OPERATIONAL","geometry":{"location":{"lat":35.63417099999999,"lng":139.7134167},"viewport":{"northeast":{"lat":35.63553428029149,"lng":139.7147078302915},"southwest":{"lat":35.6328363197085,"lng":139.7120098697085}}},"icon":"https://maps.gstatic.com/mapfiles/place_api/icons/v1/png_71/lodging-71.png","icon_background_color":"#909CE1","icon_mask_base_uri":"https://maps.gstatic.com/mapfiles/place_api/icons/v2/hotel_pinlet","name":"Hotel Mid In Meguro Ekimae","photos":[{"height":2880,"html_attributions":["<a href=\"https://maps.google.com/maps/contrib/111298134419292079115\">sakura okuma</a>"],"photo_reference":"AfLeUgMd542NWmwmFP3SLDYoe7wikC7nMRt4lAt3YZhA48SUpM97bPxRLmKDHuQLkoLh9AIko-_5MqS8uWlVqLN8sIOf4OrlMygMRqpUVU57nF09vqXhvEBuvj5kfyjqroIln0H4msBwrW_tuL7iGvyffY8aW7-Ni5lt7GskIKROc416Ymtf","width":2160}],"place_id":"ChIJR5ZJ7xiLGGAR3bWuJRimL8U","plus_code":{"compound_code":"JPM7+M9 Meguro City, Tokyo, Japan","global_code":"8Q7XJPM7+M9"},"rating":3.5,"reference":"ChIJR5ZJ7xiLGGAR3bWuJRimL8U","scope":"GOOGLE","types":["lodging","point_of_interest","establishment"],"user_ratings_total":132,"vicinity":"1-chōme-2-19 Shimomeguro, Meguro City"},{"business_status":"OPERATIONAL","geometry":{"location":{"lat":35.6368258,"lng":139.7137994},"viewport":{"northeast":{"lat":35.6380949302915,"lng":139.7153578802915},"southwest":{"lat":35.6353969697085,"lng":139.7126599197085}}},"icon":"https://maps.gstatic.com/mapfiles/place_api/icons/v1/png_71/lodging-71.png","icon_background_color":"#909CE1","icon_mask_base_uri":"https://maps.gstatic.com/mapfiles/place_api/icons/v2/hotel_pinlet","name":"Hotel Princess Garden","photos":[{"height":2160,"html_attributions":["<a href=\"https://maps.google.com/maps/contrib/115365209007991200015\">ぴぴねこ</a>"],"photo_reference":"AfLeUgNEeGWaXOIPlDR1lIPyKO-tHpK_m2rrDnrZ-FGN9Jci6otDaC8RT81X5TuPGAaTLDLl82sCLjT577uaRys8VbtrCu07n3eJpcNUoFeMQ5zgUX8lPX4G_kemxrUUcN0eqi5njW7GjQMf_cRoaRkJ7Et37dsZR5uYHYFzWGJTKuVwObiW","width":3840}],"place_id":"ChIJcfsdMhiLGGARjCeecAYbqCE","plus_code":{"compound_code":"JPP7+PG Shinagawa City, Tokyo, Japan","global_code":"8Q7XJPP7+PG"},"rating":3.4,"reference":"ChIJcfsdMhiLGGARjCeecAYbqCE","scope":"GOOGLE","types":["lodging","point_of_interest","establishment"],"user_ratings_total":627,"vicinity":"2-chōme-23-7 Kamiōsaki, Shinagawa City"},{"business_status":"OPERATIONAL","geometry":{"location":{"lat":35.6339773,"lng":139.7137202},"viewport":{"northeast":{"lat":35.63542958029149,"lng":139.7151431802915},"southwest":{"lat":35.6327316197085,"lng":139.7124452197085}}},"icon":"https://maps.gstatic.com/mapfiles/place_api/icons/v1/png_71/restaurant-71.png","icon_background_color":"#FF9E67","icon_mask_base_uri":"https://maps.gstatic.com/mapfiles/place_api/icons/v2/restaurant_pinlet","name":"Hungry Heaven Meguro","opening_hours":{"open_now":false},"photos":[{"height":1108,"html_attributions":["<a href=\"https://maps.google.com/maps/contrib/108446875978599210447\">ちほ</a>"],"photo_reference":"AfLeUgPY5_YPUs_Si0HOy6fBh5K1V6B1ueYuCuFPpxFyZtc45ZL_sT8K4mig12TIcOoE1IQ0cQlM3bx5703dw3R9K-fOTq6K9oYhAeeGVWYVzwwiEjslVGLfvDltJ7kDzUfZnr_nSRsmTaga7sE3XhD0pNysKGudI2vn_Nf1q8EjQjHQRLp0","width":1478}],"place_id":"ChIJUVni3RiLGGARpH7JcN61Xyc","plus_code":{"compound_code":"JPM7+HF Meguro City, Tokyo, Japan","global_code":"8Q7XJPM7+HF"},"price_level":2,"rating":4.1,"reference":"ChIJUVni3RiLGGARpH7JcN61Xyc","scope":"GOOGLE","types":["restaurant","food","point_of_interest","establishment"],"user_ratings_total":650,"vicinity":"セザール目黒 2F, 1-chōme-2−２２ Shimomeguro, Meguro City"},{"business_status":"CLOSED_TEMPORARILY","geometry":{"location":{"lat":35.6340648,"lng":139.7158922},"viewport":{"northeast":{"lat":35.6354682802915,"lng":139.7173962302915},"southwest":{"lat":35.6327703197085,"lng":139.7146982697085}}},"icon":"https://maps.gstatic.com/mapfiles/place_api/icons/v1/png_71/restaurant-71.png","icon_background_color":"#FF9E67","icon_mask_base_uri":"https://maps.gstatic.com/mapfiles/place_api/icons/v2/restaurant_pinlet","name":"a la campagne Meguro 1F","permanently_closed":true,"photos":[{"height":350,"html_attributions":["<a href=\"https://maps.google.com/maps/contrib/106879959247203544814\">ア・ラ・カンパーニュ 目黒店</a>"],"photo_reference":"AfLeUgM7Q8cdBij5gas1AZiyOJDhRmt30cvaCDuep6sQCeg87ADPzvUCEKS6WKlETIlzGs7Cd2ZoM2Fy2FoBiz0pFJET0LCLItq-FcMKeievZIexrWkuf7L0wCYnd47hus6uACOATqvMClyy3G4FfDJGNQFdwlyDc8K-sZ-vJlE5UJMDw_dL","width":470}],"place_id":"ChIJL0ReThmLGGARmTPfngRIY_M","plus_code":{"compound_code":"JPM8+J9 Shinagawa City, Tokyo, Japan","global_code":"8Q7XJPM8+J9"},"price_level":2,"rating":4,"reference":"ChIJL0ReThmLGGARmTPfngRIY_M","scope":"GOOGLE","types":["bakery","food","point_of_interest","store","establishment"],"user_ratings_total":64,"vicinity":"アトレ目黒1A館, 1F, 2-chōme-１６−９ Kamiōsaki, Shinagawa City品川区"},{"business_status":"OPERATIONAL","geometry":{"location":{"lat":35.6415837,"lng":139.7154177},"viewport":{"northeast":{"lat":35.6431170802915,"lng":139.7167278302915},"southwest":{"lat":35.6404191197085,"lng":139.7140298697085}}},"icon":"https://maps.gstatic.com/mapfiles/place_api/icons/v1/png_71/lodging-71.png","icon_background_color":"#909CE1","icon_mask_base_uri":"https://maps.gstatic.com/mapfiles/place_api/icons/v2/hotel_pinlet","name":"The Westin Tokyo","photos":[{"height":810,"html_attributions":["<a href=\"https://maps.google.com/maps/contrib/100135498071067864868\">The Westin Tokyo</a>"],"photo_reference":"AfLeUgNCSYcATaJTKar__uF7kZKsWYG5kLpvESKhpaXXZqAj4dpg7Ym_1n-FQfpcYaDGhz3ejZj3gvLYGtwnB-VCaMlQdpZ643OLN5jtO-Sm1UesqIGMs-x4lI2tQa3Oiw4A5f7ST5u4TzrdiG_yXNti0vMARo87Py2JzyfNJBNLHrViZimQ","width":1440}],"place_id":"ChIJO4Ou6haLGGARdRY9-ojhl74","plus_code":{"compound_code":"JPR8+J5 Meguro City, Tokyo, Japan","global_code":"8Q7XJPR8+J5"},"rating":4.3,"reference":"ChIJO4Ou6haLGGARdRY9-ojhl74","scope":"GOOGLE","types":["lodging","point_of_interest","establishment"],"user_ratings_total":4831,"vicinity":"1-chōme-4-1 Mita, Meguro City"},{"business_status":"OPERATIONAL","geometry":{"location":{"lat":35.6419444,"lng":139.7133333},"viewport":{"northeast":{"lat":35.6434571302915,"lng":139.7142343302915},"southwest":{"lat":35.6407591697085,"lng":139.7115363697085}}},"icon":"https://maps.gstatic.com/mapfiles/place_api/icons/v1/png_71/restaurant-71.png","icon_background_color":"#FF9E67","icon_mask_base_uri":"https://maps.gstatic.com/mapfiles/place_api/icons/v2/restaurant_pinlet","name":"Hana Chibo Okonomiyaki","opening_hours":{"open_now":false},"photos":[{"height":426,"html_attributions":["<a href=\"https://maps.google.com/maps/contrib/106199168971244337589\">華 千房 恵比寿ガーデンプレイス店</a>"],"photo_reference":"AfLeUgMJniMLbAYOIRyCIN2n0yVlk4TQ0J_le1rtmWr7z83XUB6dykkm7NnVyGXU8rr045aCZw94U3QIGA6y1pHYZMqbcYE3er55733lpUrI0fzKCXnCl-Omir4_RWEsDBisKnrzgxPnEg4DNY9nFJ7n8SCAc5IOMJLFn6B8iNE-anuQHHMx","width":640}],"place_id":"ChIJzW-R2hWLGGARgN9Xw36Zi5Q","plus_code":{"compound_code":"JPR7+Q8 Shibuya City, Tokyo, Japan","global_code":"8Q7XJPR7+Q8"},"price_level":2,"rating":3.8,"reference":"ChIJzW-R2hWLGGARgN9Xw36Zi5Q","scope":"GOOGLE","types":["restaurant","food","point_of_interest","establishment"],"user_ratings_total":122,"vicinity":"ガーデンプレイスタワー３８F, 4-chōme-20−３ Ebisu, Shibuya City"},{"business_status":"OPERATIONAL","geometry":{"location":{"lat":35.6420263,"lng":139.7132427},"viewport":{"northeast":{"lat":35.64327378029149,"lng":139.7143222302915},"southwest":{"lat":35.6405758197085,"lng":139.7116242697085}}},"icon":"https://maps.gstatic.com/mapfiles/place_api/icons/v1/png_71/restaurant-71.png","icon_background_color":"#FF9E67","icon_mask_base_uri":"https://maps.gstatic.com/mapfiles/place_api/icons/v2/restaurant_pinlet","name":"Sushi Taka Ebisu Garden Place Tower 38F","opening_hours":{"open_now":false},"photos":[{"height":3024,"html_attributions":["<a href=\"https://maps.google.com/maps/contrib/104694583236609319710\">Bull Dogg</a>"],"photo_reference":"AfLeUgOAtpJ_-cCzXcVWUWsa6Vsxv2AjCfkSziJOeZrImzrJYtCwm4kwQ0V9TWoXyWejfsOcsjawohC2z844HEBb-RcF4V_EbjzClzrYv6SWpssxM06FDPmNRkoZUL21WcwM2q04eU8m-s-wW_2QBKkC0w3HsEKUfRhP2Oy6czQV2724rxcy","width":4032}],"place_id":"ChIJzW-R2hWLGGARJUTTVjGkSsY","plus_code":{"compound_code":"JPR7+R7 Shibuya City, Tokyo, Japan","global_code":"8Q7XJPR7+R7"},"price_level":2,"rating":3.9,"reference":"ChIJzW-R2hWLGGARJUTTVjGkSsY","scope":"GOOGLE","types":["meal_takeaway","restaurant","food","point_of_interest","establishment"],"user_ratings_total":104,"vicinity":"恵比寿ガーデンプレイスタワー38階, 4-chōme-20−３ Ebisu, Shibuya City"},{"business_status":"OPERATIONAL","geometry":{"location":{"lat":35.6396926,"lng":139.7112703},"viewport":{"northeast":{"lat":35.64103743029149,"lng":139.7126273302915},"southwest":{"lat":35.6383394697085,"lng":139.7099293697085}}},"icon":"https://maps.gstatic.com/mapfiles/place_api/icons/v1/png_71/restaurant-71.png","icon_background_color":"#FF9E67","icon_mask_base_uri":"https://maps.gstatic.com/mapfiles/place_api/icons/v2/restaurant_pinlet","name":"Ramen Tai","opening_hours":{"open_now":false},"photos":[{"height":3024,"html_attributions":["<a href=\"https://maps.google.com/maps/contrib/109865897640939782982\">m m</a>"],"photo_reference":"AfLeUgPKZjh_bcMg_bhVSDZrj046SKzeg0-p7r663oWHB1JO_3rBh8H4ndJHTs2bkw4PJdq1mGdTzow3ngQnkjW-O9ef0hpCKRg9LKs0IUb8k-e_0YJIqsNvI-WmB_KIaj6iXnQkatB0E3pEtmkRAVbubh52ZFjr-Pxd6bb-ioxDMjWgdBV_","width":4032}],"place_id":"ChIJD7eMjD2LGGARstWHVxZGMMI","plus_code":{"compound_code":"JPQ6+VG Meguro City, Tokyo, Japan","global_code":"8Q7XJPQ6+VG"},"price_level":1,"rating":4.2,"reference":"ChIJD7eMjD2LGGARstWHVxZGMMI","scope":"GOOGLE","types":["restaurant","food","point_of_interest","establishment"],"user_ratings_total":179,"vicinity":"2-chōme-7-18 Mita, Meguro City"},{"business_status":"OPERATIONAL","geometry":{"location":{"lat":35.6359331,"lng":139.7060162},"viewport":{"northeast":{"lat":35.6372988802915,"lng":139.7073743302915},"southwest":{"lat":35.6346009197085,"lng":139.7046763697085}}},"icon":"https://maps.gstatic.com/mapfiles/place_api/icons/v1/png_71/restaurant-71.png","icon_background_color":"#FF9E67","icon_mask_base_uri":"https://maps.gstatic.com/mapfiles/place_api/icons/v2/restaurant_pinlet","name":"gentille","opening_hours":{"open_now":false},"photos":[{"height":3024,"html_attributions":["<a href=\"https://maps.google.com/maps/contrib/103364499124302662540\">うんじEUNJI NAM</a>"],"photo_reference":"AfLeUgOSdIswRVdg9hJ-3bc5eoegM34FFy1pDldKLLuWIHOQHsZcdGPz2j-sOrMrxHsMBkpLMMLy4nDtEJCvbohh47lNrEYLPe9ocn1iNAgaZpDCRkFaYBMlo0w9X--Jsv-3tVsxHYl1Inp1nyDObxqvu11u0ymhB1dZmeBozgGxOQvAbIVm","width":4032}],"place_id":"ChIJh05HZDuLGGAR9HpQ05rKQMc","plus_code":{"compound_code":"JPP4+9C Meguro City, Tokyo, Japan","global_code":"8Q7XJPP4+9C"},"price_level":2,"rating":3.8,"reference":"ChIJh05HZDuLGGAR9HpQ05rKQMc","scope":"GOOGLE","types":["bakery","food","point_of_interest","store","establishment"],"user_ratings_total":157,"vicinity":"3-chōme-1-1 Meguro, Meguro City"},{"business_status":"OPERATIONAL","geometry":{"location":{"lat":35.6333315,"lng":139.7093151},"viewport":{"northeast":{"lat":35.6346139802915,"lng":139.7107187802915},"southwest":{"lat":35.6319160197085,"lng":139.7080208197085}}},"icon":"https://maps.gstatic.com/mapfiles/place_api/icons/v1/png_71/generic_business-71.png","icon_background_color":"#7B9EB0","icon_mask_base_uri":"https://maps.gstatic.com/mapfiles/place_api/icons/v2/generic_pinlet","name":"権之助坂スタジオ","opening_hours":{"open_now":true},"photos":[{"height":4032,"html_attributions":["<a href=\"https://maps.google.com/maps/contrib/105726870239350480579\">Amalia Evstratova</a>"],"photo_reference":"AfLeUgONdYCr4GPA8Uo-2wK-rqMQj7ljr6BBtOs5FdmjBQiOJ3i3ojptG0g3_XsBQOFFbbTGaVEzlCnz7I9RW-bQBU9AG8KdkNeKppVztp7Lo-Ouq2Gll4NmfRYXJTFXITBRiaobo1eXM_JCQLEI3oqcKhMUsNkuq8iuQxW5V-aS7tDXz99w","width":3024}],"place_id":"ChIJOS3jVSKLGGARVpfJKH2Asb4","plus_code":{"compound_code":"JPM5+8P Meguro City, Tokyo, Japan","global_code":"8Q7XJPM5+8P"},"rating":4,"reference":"ChIJOS3jVSKLGGARVpfJKH2Asb4","scope":"GOOGLE","types":["point_of_interest","establishment"],"user_ratings_total":19,"vicinity":"2-chōme-9-6 Meguro, 目黒区 Meguro City"},{"business_status":"OPERATIONAL","geometry":{"location":{"lat":35.6310471,"lng":139.7151523},"viewport":{"northeast":{"lat":35.63243693029149,"lng":139.7167261802915},"southwest":{"lat":35.6297389697085,"lng":139.7140282197085}}},"icon":"https://maps.gstatic.com/mapfiles/place_api/icons/v1/png_71/school-71.png","icon_background_color":"#7B9EB0","icon_mask_base_uri":"https://maps.gstatic.com/mapfiles/place_api/icons/v2/school_pinlet","name":"杉野学園ドレスメーカー学院第二校舎","photos":[{"height":2160,"html_attributions":["<a href=\"https://maps.google.com/maps/contrib/117301545263790514230\">TARO SHIBUYA</a>"],"photo_reference":"AfLeUgM6-hIjqR9Um8EN9rmEynGvTQ3B9CDK-p6lClL6BG_3K_JWZRSes_kXtooQoD3AYEMtqJLZBab4A4tz42lhVnJE_Dl39UiMheNxy_UMNOuJPIKX9_4YTd02jtcHjAbHltdT9o2cj5HCQb7qYumSfBqRC0WFevzkChJhbUgQmGrzKp2b","width":2160}],"place_id":"ChIJwWM0Xx6LGGAR0-LOYAHIOGw","plus_code":{"compound_code":"JPJ8+C3 Shinagawa City, Tokyo, Japan","global_code":"8Q7XJPJ8+C3"},"rating":1,"reference":"ChIJwWM0Xx6LGGAR0-LOYAHIOGw","scope":"GOOGLE","types":["school","point_of_interest","establishment"],"user_ratings_total":1,"vicinity":"5 Chome, Shinagawa City"},{"business_status":"OPERATIONAL","geometry":{"location":{"lat":35.6346324,"lng":139.7124305},"viewport":{"northeast":{"lat":35.6359296802915,"lng":139.7137534302915},"southwest":{"lat":35.6332317197085,"lng":139.7110554697085}}},"icon":"https://maps.gstatic.com/mapfiles/place_api/icons/v1/png_71/restaurant-71.png","icon_background_color":"#FF9E67","icon_mask_base_uri":"https://maps.gstatic.com/mapfiles/place_api/icons/v2/restaurant_pinlet","name":"大陸食堂","opening_hours":{"open_now":false},"photos":[{"height":3712,"html_attributions":["<a href=\"https://maps.google.com/maps/contrib/114626470231110504083\">大陸食堂</a>"],"photo_reference":"AfLeUgOvyc5YnaaDJy5DCiqLVa0RGckOI5KCPyDVys16oyt4BUUQK3tIWf0D1YBwXtjkCPKg-lwZmwkWZvIfPSvt8CcYp2VqXpu_0PElGqngHvvebkOFNkkB38ivGPEU0QcuWaViPX0jZ8xcN5F9Hj2iBqON0MvbzIAgvrFvZFW6SQjp2Ze6","width":5568}],"place_id":"ChIJKxn3YhiLGGARbqnsWsqVLWs","plus_code":{"compound_code":"JPM6+VX Meguro City, Tokyo, Japan","global_code":"8Q7XJPM6+VX"},"price_level":2,"rating":3.7,"reference":"ChIJKxn3YhiLGGARbqnsWsqVLWs","scope":"GOOGLE","types":["restaurant","food","point_of_interest","establishment"],"user_ratings_total":210,"vicinity":"1-chōme-5-19 Meguro, Meguro City"},{"business_status":"OPERATIONAL","geometry":{"location":{"lat":35.63410930000001,"lng":139.713713},"viewport":{"northeast":{"lat":35.6354766802915,"lng":139.7151395802915},"southwest":{"lat":35.6327787197085,"lng":139.7124416197085}}},"icon":"https://maps.gstatic.com/mapfiles/place_api/icons/v1/png_71/cafe-71.png","icon_background_color":"#FF9E67","icon_mask_base_uri":"https://maps.gstatic.com/mapfiles/place_api/icons/v2/cafe_pinlet","name":"ITOH ya coffee shop","opening_hours":{"open_now":true},"photos":[{"height":3024,"html_attributions":["<a href=\"https://maps.google.com/maps/contrib/107533922550764383355\">「全国モクモク場所探し」けいご</a>"],"photo_reference":"AfLeUgOxVoEau4RGHJTQ-8dpjnJa29MUrkWy26CjpvwYIvcZLaKt9XjZbgj5JyfPlRENQVG-NF_GqFZHBPW9BojkDRP_qASzVO9MBqwj8ujrbv2iRmNbaKQ6kv7wVcp6sLl4V0IBk7z88DKW_prXi9e-uDS7dgg_1Pm89IXt-TzatxPLReav","width":4032}],"place_id":"ChIJUVni3RiLGGARaG-kcRXnymc","plus_code":{"compound_code":"JPM7+JF Meguro City, Tokyo, Japan","global_code":"8Q7XJPM7+JF"},"price_level":2,"rating":4,"reference":"ChIJUVni3RiLGGARaG-kcRXnymc","scope":"GOOGLE","types":["cafe","food","point_of_interest","store","establishment"],"user_ratings_total":150,"vicinity":"1-chōme-2-22 Shimomeguro, Meguro City"},{"business_status":"OPERATIONAL","geometry":{"location":{"lat":35.6347411,"lng":139.7160844},"viewport":{"northeast":{"lat":35.6361017302915,"lng":139.7174846802915},"southwest":{"lat":35.6334037697085,"lng":139.7147867197085}}},"icon":"https://maps.gstatic.com/mapfiles/place_api/icons/v1/png_71/restaurant-71.png","icon_background_color":"#FF9E67","icon_mask_base_uri":"https://maps.gstatic.com/mapfiles/place_api/icons/v2/restaurant_pinlet","name":"Tendon Tenya","opening_hours":{"open_now":true},"photos":[{"height":4032,"html_attributions":["<a href=\"https://maps.google.com/maps/contrib/116289087708817938757\">DK F</a>"],"photo_reference":"AfLeUgNyVZjcqY6uAHkw88Sqsx9g2QBPIIqdYAOTq6rpopVh62h3nJSJ3HU9IBKwNCqbr8qTdNluV_VHPLBTcBSVWi6cFYHWlVnuLJKoMNi73sT4Jnt2Du1NW9ccfGyTCnEIwLYq_YAmcaOdUQDXwwUi2xDikmJ_EWu3rjvNAoU9nf5w14y9","width":3024}],"place_id":"ChIJzWXUXBmLGGAReFt00huiBjo","plus_code":{"compound_code":"JPM8+VC Shinagawa City, Tokyo, Japan","global_code":"8Q7XJPM8+VC"},"price_level":1,"rating":3.5,"reference":"ChIJzWXUXBmLGGAReFt00huiBjo","scope":"GOOGLE","types":["restaurant","food","point_of_interest","establishment"],"user_ratings_total":405,"vicinity":"Koyo Building, 1F, 2-chōme-16−４ Kamiōsaki, Shinagawa City"},{"business_status":"OPERATIONAL","geometry":{"location":{"lat":35.6307647,"lng":139.7139304},"viewport":{"northeast":{"lat":35.63213193029149,"lng":139.7153188802915},"southwest":{"lat":35.6294339697085,"lng":139.7126209197085}}},"icon":"https://maps.gstatic.com/mapfiles/place_api/icons/v1/png_71/restaurant-71.png","icon_background_color":"#FF9E67","icon_mask_base_uri":"https://maps.gstatic.com/mapfiles/place_api/icons/v2/restaurant_pinlet","name":"New American Grill “KANADE TERRACE”","opening_hours":{"open_now":false},"photos":[{"height":2667,"html_attributions":["<a href=\"https://maps.google.com/maps/contrib/107258718863728592561\">KANADE TERRACE</a>"],"photo_reference":"AfLeUgNb1uKJ2_pZJ7GqPsEnI0xHfSOO13trg401POtr-82SFmMIA3TF7yfpFG7sKSjB3YNfzt9y6N8xsiAFP47wHlRaGR2zPGgnlRZ1i_K8FEVckTSaa7UnQ5dM-AyGnITALUj9G8DxxtDxl5COKwx6YQArATjbXG7qFMVtH56aM-RxL4kq","width":4000}],"place_id":"ChIJx0sxHB-LGGARpFBANul9NtM","plus_code":{"compound_code":"JPJ7+8H Meguro City, Tokyo, Japan","global_code":"8Q7XJPJ7+8H"},"price_level":2,"rating":4.2,"reference":"ChIJx0sxHB-LGGARpFBANul9NtM","scope":"GOOGLE","types":["restaurant","food","point_of_interest","establishment"],"user_ratings_total":288,"vicinity":"1-chōme-8-1 Shimomeguro, Meguro City"},{"business_status":"OPERATIONAL","geometry":{"location":{"lat":35.6330358,"lng":139.709427},"viewport":{"northeast":{"lat":35.6343783302915,"lng":139.7108067302915},"southwest":{"lat":35.6316803697085,"lng":139.7081087697085}}},"icon":"https://maps.gstatic.com/mapfiles/place_api/icons/v1/png_71/restaurant-71.png","icon_background_color":"#FF9E67","icon_mask_base_uri":"https://maps.gstatic.com/mapfiles/place_api/icons/v2/restaurant_pinlet","name":"LAND","opening_hours":{"open_now":false},"photos":[{"height":451,"html_attributions":["<a href=\"https://maps.google.com/maps/contrib/106676732613255999684\">LAND</a>"],"photo_reference":"AfLeUgPvdFoT-0WMthEcqmFTfGaYqTVtxytX85RDzTH2ZeYhYEVppBKtlIu1CCmP33nwOObX9F3tTdQpt5Z6GL4zGzOdxJ2iou124wMMWYdiC9b6lQXuwHs3405ftqUZiCGX02QF3llxVdWOG0CKqfr4go3cwMBe44KgujADBSsphOrlzq4Z","width":800}],"place_id":"ChIJcdp2USKLGGARMp5ZLeGuHiE","plus_code":{"compound_code":"JPM5+6Q Meguro City, Tokyo, Japan","global_code":"8Q7XJPM5+6Q"},"price_level":2,"rating":4.3,"reference":"ChIJcdp2USKLGGARMp5ZLeGuHiE","scope":"GOOGLE","types":["restaurant","food","point_of_interest","establishment"],"user_ratings_total":306,"vicinity":"セントヒルズ目黒 2F, 2-chōme-21−２８ Shimomeguro, Meguro City"},{"business_status":"OPERATIONAL","geometry":{"location":{"lat":35.6342948,"lng":139.7121612},"viewport":{"northeast":{"lat":35.6356974302915,"lng":139.7134784302915},"southwest":{"lat":35.6329994697085,"lng":139.7107804697085}}},"icon":"https://maps.gstatic.com/mapfiles/place_api/icons/v1/png_71/restaurant-71.png","icon_background_color":"#FF9E67","icon_mask_base_uri":"https://maps.gstatic.com/mapfiles/place_api/icons/v2/restaurant_pinlet","name":"Chinmaya Meguro","opening_hours":{"open_now":false},"photos":[{"height":2400,"html_attributions":["<a href=\"https://maps.google.com/maps/contrib/104414973174451180372\">陳麻家 目黒店</a>"],"photo_reference":"AfLeUgPu5qUhzn5uotcT4HmTrycggTnj8CwWce3rRPyjZpvMncbW-U7yRVRM5qFokD02bk3WBVf9uRFhj-OMmcYUHe1DMKRHyZA0oltPxZJSkm_VfA3ENY_hD4e9PXntOTR-njj38PFFNXf0_cy-CePX-yZokiHcbHyZzpOQpi5_Z3a03_Ga","width":3600}],"place_id":"ChIJT0MehhiLGGARrMJ-RCbFEmk","plus_code":{"compound_code":"JPM6+PV Meguro City, Tokyo, Japan","global_code":"8Q7XJPM6+PV"},"price_level":2,"rating":3.8,"reference":"ChIJT0MehhiLGGARrMJ-RCbFEmk","scope":"GOOGLE","types":["restaurant","food","point_of_interest","establishment"],"user_ratings_total":197,"vicinity":"1-chōme-5-20 Shimomeguro, Meguro City"},{"business_status":"OPERATIONAL","geometry":{"location":{"lat":35.6342187,"lng":139.7140603},"viewport":{"northeast":{"lat":35.63552248029151,"lng":139.7153797802915},"southwest":{"lat":35.63282451970851,"lng":139.7126818197085}}},"icon":"https://maps.gstatic.com/mapfiles/place_api/icons/v1/png_71/restaurant-71.png","icon_background_color":"#FF9E67","icon_mask_base_uri":"https://maps.gstatic.com/mapfiles/place_api/icons/v2/restaurant_pinlet","name":"Ichirin Spicy Noodles Meguro","opening_hours":{"open_now":false},"photos":[{"height":538,"html_attributions":["<a href=\"https://maps.google.com/maps/contrib/109804816553101656809\">辛麺屋 一輪 目黒店</a>"],"photo_reference":"AfLeUgPKqInN_aKyCOHQzGAeWinYrpLSSNnSscGW7FVnLAvl6hHf1ux1DuZ08JQ1kP1q6xuP1pnRs9kswee7SwqmI2OY2DUML1l1CvUnYJuES2JpXQJdaoL4wxPjd2YThfimMUQmbJriv3f_ZXp6X7vgxEBWuDbxnCL8Xp3HY1lalpK2DeK3","width":807}],"place_id":"ChIJ21HpHxmLGGAR1OMDGlVqIv8","plus_code":{"compound_code":"JPM7+MJ Meguro City, Tokyo, Japan","global_code":"8Q7XJPM7+MJ"},"price_level":2,"rating":3.7,"reference":"ChIJ21HpHxmLGGAR1OMDGlVqIv8","scope":"GOOGLE","types":["restaurant","food","point_of_interest","establishment"],"user_ratings_total":330,"vicinity":"脇田ビル 1F, 1-chōme-4−８ Meguro, Meguro City"},{"geometry":{"location":{"lat":35.65808130000001,"lng":139.7515077},"viewport":{"northeast":{"lat":35.68270876520896,"lng":139.7819884821575},"southwest":{"lat":35.62288889971529,"lng":139.708744908729}}},"icon":"https://maps.gstatic.com/mapfiles/place_api/icons/v1/png_71/geocode-71.png","icon_background_color":"#7B9EB0","icon_mask_base_uri":"https://maps.gstatic.com/mapfiles/place_api/icons/v2/generic_pinlet","name":"Minato City","photos":[{"height":4032,"html_attributions":["<a href=\"https://maps.google.com/maps/contrib/100458463861154420797\">BON Bon</a>"],"photo_reference":"AfLeUgNJ6AfMggxqbZD6v18bI3USM-I5v4lg3_I-HjSjbGsShwmGEM9uA9K_UJ-MZv_Z2s1bTucPstHsOLri1flLfrQdk5YRvmIkLsy7U0AI5oOeSWxWgZjLm2d5Sl3OgbygmAfTg-9YxSDd4dpR5CVNuR024pYJ1CROOuSIckpPibjbCmKg","width":3024}],"place_id":"ChIJ8yIZtLuLGGARrGzw8nX96zM","reference":"ChIJ8yIZtLuLGGARrGzw8nX96zM","scope":"GOOGLE","types":["locality","political"],"vicinity":"Minato City"}],"status":"OK"}
