{"html_attributions":[],"next_page_token":"AfLeUgOPZbh1USdfcT4RsZvUmffDn50zIBeOWCPlzDse315XDpadhQwGc54nMMwhnJ-TaOhv3JYjV7KVCM8IOiKZfgtwRw5Er_F_G4rl58aUcTJ0IMI4tSZbtUPXioyObXkAJzUBuhJpL0KWqiufa3UkC2kKTK2wUUr9540SThLGf9JXFW8Npz_7ZfAlaaAUlSukfq2SomSUm0MIQNeA6YZ76tFOOo_6Q2YdOIaN9ksd_l17HvWsBdKDrtU0ZgSjW2o2lePNkljtpbbJmy3S_vK3GuR8nRVzVlJyqnd-6qk1zJv_rNgbvZylOFW8Ql2B47fL--5LbRXIMPJSdfcQ-vrh01_JjAuq6zzlUr3SxtdDzHIwJDbZhrXAMIqL7myWYVPiz7q_tN2UVb9LnSJ-kM4xoCSYelyx5gVM_doTjakaTYuh","results":[{"geometry":{"location":{"lat":35.6803997,"lng":139.7690174},"viewport":{"northeast":{"lat":35.81744534519053,"lng":139.918874338966},"southwest":{"lat":35.51904202902757,"lng":139.5628610838164}}},"icon":"https://maps.gstatic.com/mapfiles/place_api/icons/v1/png_71/geocode-71.png","icon_background_color":"#7B9EB0","icon_mask_base_uri":"https://maps.gstatic.com/mapfiles/place_api/icons/v2/generic_pinlet","name":"Tokyo","photos":[{"height":1799,"html_attributions":["<a href=\"https://maps.google.com/maps/contrib/110543873949960736982\">saleem zaid</a>"],"photo_reference":"AfLeUgN7Yi5P6Zp2OX-0EBIjAfJ-ZXq4imEWi8k8m80stab-uEpN7BvvgIDdBBhoTBEms0TbcfHWRwBy5IoYuRaZq_ZPwgK9DQJZ4oCtByfvH7lggaUn9kdejlQWcv895aChEssXuNOEw1jQrCpXvCbZkmDyu8X9118ZFjRQmcoNlRvoqu9t","width":1080}],"place_id":"ChIJXSModoWLGGARILWiCfeu2M0","reference":"ChIJXSModoWLGGARILWiCfeu2M0","scope":"GOOGLE","types":["colloquial_area","locality","political"],"vicinity":"Tokyo"},{"business_status":"OPERATIONAL","geometry":{"location":{"lat":35.63417099999999,"lng":139.7134167},"viewport":{"northeast":{"lat":35.63553428029149,"lng":139.7147078302915},"southwest":{"lat":35.6328363197085,"lng":139.7120098697085}}},"icon":"https://maps.gstatic.com/mapfiles/place_api/icons/v1/png_71/lodging-71.png","icon_background_color":"#909CE1","icon_mask_base_uri":"https://maps.gstatic.com/mapfiles/place_api/icons/v2/hotel_pinlet","name":"Hotel Mid In Meguro Ekimae","photos":[{"height":2880,"html_attributions":["<a href=\"https://maps.google.com/maps/contrib/111298134419292079115\">sakura okuma</a>"],"photo_reference":"AfLeUgNTepmKfV1DtcgLqQiHFWwUqdQHlUnOTwbseX5VvAO0VEZXWofQnzMwcTQE79lvzjII8ym5i_s9Uobn89pL1fkbyEkMCFnrhwzGkgHV6lr6TrVQURMOEA5XG-UVeNZYG-rzo85CqCEovxfIT_43R0sktob9iQDwimseP6rUAD_rnz--","width":2160}],"place_id":"ChIJR5ZJ7xiLGGAR3bWuJRimL8U","plus_code":{"compound_code":"JPM7+M9 Meguro City, Tokyo, Japan","global_code":"8Q7XJPM7+M9"},"rating":3.5,"reference":"ChIJR5ZJ7xiLGGAR3bWuJRimL8U","scope":"GOOGLE","types":["lodging","point_of_interest","establishment"],"user_ratings_total":132,"vicinity":"1-chōme-2-19 Shimomeguro, Meguro City"},{"business_status":"OPERATIONAL","geometry":{"location":{"lat":35.6368258,"lng":139.7137994},"viewport":{"northeast":{"lat":35.6380949302915,"lng":139.7153578802915},"southwest":{"lat":35.6353969697085,"lng":139.7126599197085}}},"icon":"https://maps.gstatic.com/mapfiles/place_api/icons/v1/png_71/lodging-71.png","icon_background_color":"#909CE1","icon_mask_base_uri":"https://maps.gstatic.com/mapfiles/place_api/icons/v2/hotel_pinlet","name":"Hotel Princess Garden","photos":[{"height":2160,"html_attributions":["<a href=\"https://maps.google.com/maps/contrib/115365209007991200015\">ぴぴねこ</a>"],"photo_reference":"AfLeUgMQwOge-Syjwu7jb3E5QaxO_FpkTbC4PNVudLH0ZMWKMgNPuImOAT7PC_RtWuaNVwEnfzPswR986lWrvHYuEvr2j_6a8VoVEPx-jb9rgfsxvTitpyHFFZ_vVdeg48j2ww2tXv7qEW9n9kl39CbIM-wGiXqJJt13ac2LrM2PVUk2NyVM","width":3840}],"place_id":"ChIJcfsdMhiLGGARjCeecAYbqCE","plus_code":{"compound_code":"JPP7+PG Shinagawa City, Tokyo, Japan","global_code":"8Q7XJPP7+PG"},"rating":3.4,"reference":"ChIJcfsdMhiLGGARjCeecAYbqCE","scope":"GOOGLE","types":["lodging","point_of_interest","establishment"],"user_ratings_total":627,"vicinity":"2-chōme-23-7 Kamiōsaki, Shinagawa City"},{"business_status":"OPERATIONAL","geometry":{"location":{"lat":35.6339773,"lng":139.7137202},"viewport":{"northeast":{"lat":35.63542958029149,"lng":139.7151431802915},"southwest":{"lat":35.6327316197085,"lng":139.7124452197085}}},"icon":"https://maps.gstatic.com/mapfiles/place_api/icons/v1/png_71/restaurant-71.png","icon_background_color":"#FF9E67","icon_mask_base_uri":"https://maps.gstatic.com/mapfiles/place_api/icons/v2/restaurant_pinlet","name":"Hungry Heaven Meguro","opening_hours":{"open_now":false},"photos":[{"height":1108,"html_attributions":["<a href=\"https://maps.google.com/maps/contrib/108446875978599210447\">ちほ</a>"],"photo_reference":"AfLeUgMSs4xeHWampmLUsjJg28w4LdJpv5eXQf66c5jXjBBTnHSyCgLu7t8RMaFIQjthcCMveTIM9U719uSLNJ11ffK8NnqN0gW-hogNcfCBRDQhsvl_JYjDd4xpLaUm87qYBwIifn73pZWe_dlvbE8dfV__GFR7Nl5YcPPlQLpILpCFievm","width":1478}],"place_id":"ChIJUVni3RiLGGARpH7JcN61Xyc","plus_code":{"compound_code":"JPM7+HF Meguro City, Tokyo, Japan","global_code":"8Q7XJPM7+HF"},"price_level":2,"rating":4.1,"reference":"ChIJUVni3RiLGGARpH7JcN61Xyc","scope":"GOOGLE","types":["restaurant","point_of_interest","food","establishment"],"user_ratings_total":650,"vicinity":"セザール目黒 2F, 1-chōme-2−２２ Shimomeguro, Meguro City"},{"business_status":"CLOSED_TEMPORARILY","geometry":{"location":{"lat":35.6340648,"lng":139.7158922},"viewport":{"northeast":{"lat":35.6354682802915,"lng":139.7173962302915},"southwest":{"lat":35.6327703197085,"lng":139.7146982697085}}},"icon":"https://maps.gstatic.com/mapfiles/place_api/icons/v1/png_71/restaurant-71.png","icon_background_color":"#FF9E67","icon_mask_base_uri":"https://maps.gstatic.com/mapfiles/place_api/icons/v2/restaurant_pinlet","name":"a la campagne Meguro 1F","permanently_closed":true,"photos":[{"height":350,"html_attributions":["<a href=\"https://maps.google.com/maps/contrib/106879959247203544814\">ア・ラ・カンパーニュ 目黒店</a>"],"photo_reference":"AfLeUgOywW28vSgHsUB9D3zZR3SNrbhZBv2B8y0HPlFEuOk4cP9Xxvn2H07-89RAAqntZtYkotq39kj2xUrJQ5kSNNwDLFHmfeTmZ2VM02vMzE4uTV-idxZwPLCf2-KIj3tgJDoGt5YOybqe8rWe1W5XO6w0AbaM8CTzl3viiw-PN2XCU5Rq","width":470}],"place_id":"ChIJL0ReThmLGGARmTPfngRIY_M","plus_code":{"compound_code":"JPM8+J9 Shinagawa City, Tokyo, Japan","global_code":"8Q7XJPM8+J9"},"price_level":2,"rating":4,"reference":"ChIJL0ReThmLGGARmTPfngRIY_M","scope":"GOOGLE","types":["bakery","store","point_of_interest","food","establishment"],"user_ratings_total":64,"vicinity":"アトレ目黒1A館, 1F, 2-chōme-１６−９ Kamiōsaki, Shinagawa City品川区"},{"business_status":"OPERATIONAL","geometry":{"location":{"lat":35.6415837,"lng":139.7154177},"viewport":{"northeast":{"lat":35.6431170802915,"lng":139.7167278302915},"southwest":{"lat":35.6404191197085,"lng":139.7140298697085}}},"icon":"https://maps.gstatic.com/mapfiles/place_api/icons/v1/png_71/lodging-71.png","icon_background_color":"#909CE1","icon_mask_base_uri":"https://maps.gstatic.com/mapfiles/place_api/icons/v2/hotel_pinlet","name":"The Westin Tokyo","photos":[{"height":810,"html_attributions":["<a href=\"https://maps.google.com/maps/contrib/100135498071067864868\">The Westin Tokyo</a>"],"photo_reference":"AfLeUgM-XT9hqoKr-9us7vLSNJQTxCCKj46tT9UdvaX3aGHgZXLFNBAWB80fz92_v7NpshC_MJzBsjWWQgeVSOJpuBxZzcCQMBMeN0Duy8a4itmiV4rTo1SPqNnwrIChF45e90rjgZzhR4QRVPRq0kogcILYyyD3SVP6jqwPdpyb5D5za0US","width":1440}],"place_id":"ChIJO4Ou6haLGGARdRY9-ojhl74","plus_code":{"compound_code":"JPR8+J5 Meguro City, Tokyo, Japan","global_code":"8Q7XJPR8+J5"},"rating":4.3,"reference":"ChIJO4Ou6haLGGARdRY9-ojhl74","scope":"GOOGLE","types":["lodging","point_of_interest","establishment"],"user_ratings_total":4831,"vicinity":"1-chōme-4-1 Mita, Meguro City"},{"business_status":"OPERATIONAL","geometry":{"location":{"lat":35.6419444,"lng":139.7133333},"viewport":{"northeast":{"lat":35.6434571302915,"lng":139.7142343302915},"southwest":{"lat":35.6407591697085,"lng":139.7115363697085}}},"icon":"https://maps.gstatic.com/mapfiles/place_api/icons/v1/png_71/restaurant-71.png","icon_background_color":"#FF9E67","icon_mask_base_uri":"https://maps.gstatic.com/mapfiles/place_api/icons/v2/restaurant_pinlet","name":"Hana Chibo Okonomiyaki","opening_hours":{"open_now":false},"photos":[{"height":426,"html_attributions":["<a href=\"https://maps.google.com/maps/contrib/106199168971244337589\">華 千房 恵比寿ガーデンプレイス店</a>"],"photo_reference":"AfLeUgMvQKYIh_B6fUPAYlCpE_g9GuoUrG-v1i4bkQVd8126MEwpple02JJQ7AyLZE1d8nOcUqFMy9jyd9QZNeRFtPoZZ8NDYUGtFcGjfz0i-MjvgpKkp_eenNhKis_B1OYFY1AGZ8ZznTH2syBwCyp2L2PP3lFrFm5qEin3XE-7x9L7wnaL","width":640}],"place_id":"ChIJzW-R2hWLGGARgN9Xw36Zi5Q","plus_code":{"compound_code":"JPR7+Q8 Shibuya City, Tokyo, Japan","global_code":"8Q7XJPR7+Q8"},"price_level":2,"rating":3.8,"reference":"ChIJzW-R2hWLGGARgN9Xw36Zi5Q","scope":"GOOGLE","types":["restaurant","point_of_interest","food","establishment"],"user_ratings_total":122,"vicinity":"ガーデンプレイスタワー３８F, 4-chōme-20−３ Ebisu, Shibuya City"},{"business_status":"OPERATIONAL","geometry":{"location":{"lat":35.6420263,"lng":139.7132427},"viewport":{"northeast":{"lat":35.64327378029149,"lng":139.7143222302915},"southwest":{"lat":35.6405758197085,"lng":139.7116242697085}}},"icon":"https://maps.gstatic.com/mapfiles/place_api/icons/v1/png_71/restaurant-71.png","icon_background_color":"#FF9E67","icon_mask_base_uri":"https://maps.gstatic.com/mapfiles/place_api/icons/v2/restaurant_pinlet","name":"Sushi Taka Ebisu Garden Place Tower 38F","opening_hours":{"open_now":false},"photos":[{"height":3024,"html_attributions":["<a href=\"https://maps.google.com/maps/contrib/104694583236609319710\">Bull Dogg</a>"],"photo_reference":"AfLeUgMJSGXK89R0I5bs7Kc-QOY9sw37sF35CwbrHAkk8y5Q8tK-pmY0Yf2m3cX-7tomtIRAdR_Ljcu8Yr3v4a-sVsajXqadhfQ7NIoWht-JXW3B61b6QausalDLFX1HXWMZ8N_kRYINO6i95HVIAyE0ukQyQb06WnF6R8qXBwTIsl-MemjY","width":4032}],"place_id":"ChIJzW-R2hWLGGARJUTTVjGkSsY","plus_code":{"compound_code":"JPR7+R7 Shibuya City, Tokyo, Japan","global_code":"8Q7XJPR7+R7"},"price_level":2,"rating":3.9,"reference":"ChIJzW-R2hWLGGARJUTTVjGkSsY","scope":"GOOGLE","types":["meal_takeaway","restaurant","point_of_interest","food","establishment"],"user_ratings_total":104,"vicinity":"恵比寿ガーデンプレイスタワー38階, 4-chōme-20−３ Ebisu, Shibuya City"},{"business_status":"OPERATIONAL","geometry":{"location":{"lat":35.6396926,"lng":139.7112703},"viewport":{"northeast":{"lat":35.64103743029149,"lng":139.7126273302915},"southwest":{"lat":35.6383394697085,"lng":139.7099293697085}}},"icon":"https://maps.gstatic.com/mapfiles/place_api/icons/v1/png_71/restaurant-71.png","icon_background_color":"#FF9E67","icon_mask_base_uri":"https://maps.gstatic.com/mapfiles/place_api/icons/v2/restaurant_pinlet","name":"Ramen Tai","opening_hours":{"open_now":false},"photos":[{"height":3024,"html_attributions":["<a href=\"https://maps.google.com/maps/contrib/109865897640939782982\">m m</a>"],"photo_reference":"AfLeUgPsvilol6Y7TOU-VJkR3TUl4ONBp9MHFSIDnom09Vd9QcgfEDZTK7QXjBiHvZga33tjW_mZk-Pj8-9qs8R4x4LZJx3K17PesNyKH5T4lBiJoMYnnl7Cp_n6_XIP6gzura4V6NL48I2yJA9u3PGWyjL6BQPSNJ6NzOOGSspUtR0dIOXT","width":4032}],"place_id":"ChIJD7eMjD2LGGARstWHVxZGMMI","plus_code":{"compound_code":"JPQ6+VG Meguro City, Tokyo, Japan","global_code":"8Q7XJPQ6+VG"},"price_level":1,"rating":4.2,"reference":"ChIJD7eMjD2LGGARstWHVxZGMMI","scope":"GOOGLE","types":["restaurant","point_of_interest","food","establishment"],"user_ratings_total":179,"vicinity":"2-chōme-7-18 Mita, Meguro City"},{"business_status":"OPERATIONAL","geometry":{"location":{"lat":35.6359331,"lng":139.7060162},"viewport":{"northeast":{"lat":35.6372988802915,"lng":139.7073743302915},"southwest":{"lat":35.6346009197085,"lng":139.7046763697085}}},"icon":"https://maps.gstatic.com/mapfiles/place_api/icons/v1/png_71/restaurant-71.png","icon_background_color":"#FF9E67","icon_mask_base_uri":"https://maps.gstatic.com/mapfiles/place_api/icons/v2/restaurant_pinlet","name":"gentille","opening_hours":{"open_now":false},"photos":[{"height":3024,"html_attributions":["<a href=\"https://maps.google.com/maps/contrib/103364499124302662540\">うんじEUNJI NAM</a>"],"photo_reference":"AfLeUgNss3iTuMsLJ5fvO7bpUH1IecCUYvQUPmPZaOKqjyXjdc26ILIc-5XUZHe3ULpKqoDez4HvRWpOWQcMnwUzpobS3KOhXL0dvOvFSjq5zEFRAkBIKdzrxI0XP7ZbIwR9vGVfz-MIKYl-cxp4u7nLcwjkiDDr2k1sCiU22oz_-x-e5e26","width":4032}],"place_id":"ChIJh05HZDuLGGAR9HpQ05rKQMc","plus_code":{"compound_code":"JPP4+9C Meguro City, Tokyo, Japan","global_code":"8Q7XJPP4+9C"},"price_level":2,"rating":3.8,"reference":"ChIJh05HZDuLGGAR9HpQ05rKQMc","scope":"GOOGLE","types":["bakery","store","point_of_interest","food","establishment"],"user_ratings_total":157,"vicinity":"3-chōme-1-1 Meguro, Meguro City"},{"business_status":"OPERATIONAL","geometry":{"location":{"lat":35.6333315,"lng":139.7093151},"viewport":{"northeast":{"lat":35.6346139802915,"lng":139.7107187802915},"southwest":{"lat":35.6319160197085,"lng":139.7080208197085}}},"icon":"https://maps.gstatic.com/mapfiles/place_api/icons/v1/png_71/generic_business-71.png","icon_background_color":"#7B9EB0","icon_mask_base_uri":"https://maps.gstatic.com/mapfiles/place_api/icons/v2/generic_pinlet","name":"権之助坂スタジオ","opening_hours":{"open_now":true},"photos":[{"height":4032,"html_attributions":["<a href=\"https://maps.google.com/maps/contrib/105726870239350480579\">Amalia Evstratova</a>"],"photo_reference":"AfLeUgNPwDhX9e0F6a-BKwSl4WG80Xd5SCZFe0LsPb5JbWT1cFn1sbaift95vlnZVmYAK_U_ELrMOq9bh6MWxqkDQXP2YoL4CmgXA9HxJzb5D4HJOT2G4MQZ0UU8VeepF7RSy7cN657eAdJC_RRtb4TDe2ut7T24-zLTuwYZHclNN_o1ZReX","width":3024}],"place_id":"ChIJOS3jVSKLGGARVpfJKH2Asb4","plus_code":{"compound_code":"JPM5+8P Meguro City, Tokyo, Japan","global_code":"8Q7XJPM5+8P"},"rating":4,"reference":"ChIJOS3jVSKLGGARVpfJKH2Asb4","scope":"GOOGLE","types":["point_of_interest","establishment"],"user_ratings_total":19,"vicinity":"2-chōme-9-6 Meguro, 目黒区 Meguro City"},{"business_status":"OPERATIONAL","geometry":{"location":{"lat":35.6310471,"lng":139.7151523},"viewport":{"northeast":{"lat":35.63243693029149,"lng":139.7167261802915},"southwest":{"lat":35.6297389697085,"lng":139.7140282197085}}},"icon":"https://maps.gstatic.com/mapfiles/place_api/icons/v1/png_71/school-71.png","icon_background_color":"#7B9EB0","icon_mask_base_uri":"https://maps.gstatic.com/mapfiles/place_api/icons/v2/school_pinlet","name":"杉野学園ドレスメーカー学院第二校舎","photos":[{"height":2160,"html_attributions":["<a href=\"https://maps.google.com/maps/contrib/117301545263790514230\">TARO SHIBUYA</a>"],"photo_reference":"AfLeUgMyobVYSN4g9F-1syBYhJhVCu219T0xspgKnTzxDmhi020VdWKQmFR1s9ADoM2RD2Y-N528EU7ac_685bnWIzdbRyQCO4Fp912AFHuSjTKf_B3WWvDHAZJafzG5Ar6ySKfRl5YeMV9CM8QnsoqJqC35eIQVCKPYpwdQPinduC9xwAZw","width":2160}],"place_id":"ChIJwWM0Xx6LGGAR0-LOYAHIOGw","plus_code":{"compound_code":"JPJ8+C3 Shinagawa City, Tokyo, Japan","global_code":"8Q7XJPJ8+C3"},"rating":1,"reference":"ChIJwWM0Xx6LGGAR0-LOYAHIOGw","scope":"GOOGLE","types":["school","point_of_interest","establishment"],"user_ratings_total":1,"vicinity":"5 Chome, Shinagawa City"},{"business_status":"OPERATIONAL","geometry":{"location":{"lat":35.6346324,"lng":139.7124305},"viewport":{"northeast":{"lat":35.6359296802915,"lng":139.7137534302915},"southwest":{"lat":35.6332317197085,"lng":139.7110554697085}}},"icon":"https://maps.gstatic.com/mapfiles/place_api/icons/v1/png_71/restaurant-71.png","icon_background_color":"#FF9E67","icon_mask_base_uri":"https://maps.gstatic.com/mapfiles/place_api/icons/v2/restaurant_pinlet","name":"大陸食堂","opening_hours":{"open_now":false},"photos":[{"height":3712,"html_attributions":["<a href=\"https://maps.google.com/maps/contrib/114626470231110504083\">大陸食堂</a>"],"photo_reference":"AfLeUgNU7IVqWf4xrNZ2yZ1Pgfnf1rEjNptUfUk773O2R7E_Cvx_Q3NGvmKXewFhImi8T7Z4ZC6LxuPXJEXgPfMU_cai5I7oQMkfVA47_SNXo88AtQu6C6su-ouoFuGvaA-3_zGnqS_olZ-ZAooIKLHbaf1f4LAo1SPFSYPM72OAoeRouC-j","width":5568}],"place_id":"ChIJKxn3YhiLGGARbqnsWsqVLWs","plus_code":{"compound_code":"JPM6+VX Meguro City, Tokyo, Japan","global_code":"8Q7XJPM6+VX"},"price_level":2,"rating":3.7,"reference":"ChIJKxn3YhiLGGARbqnsWsqVLWs","scope":"GOOGLE","types":["restaurant","point_of_interest","food","establishment"],"user_ratings_total":210,"vicinity":"1-chōme-5-19 Meguro, Meguro City"},{"business_status":"OPERATIONAL","geometry":{"location":{"lat":35.63410930000001,"lng":139.713713},"viewport":{"northeast":{"lat":35.6354766802915,"lng":139.7151395802915},"southwest":{"lat":35.6327787197085,"lng":139.7124416197085}}},"icon":"https://maps.gstatic.com/mapfiles/place_api/icons/v1/png_71/cafe-71.png","icon_background_color":"#FF9E67","icon_mask_base_uri":"https://maps.gstatic.com/mapfiles/place_api/icons/v2/cafe_pinlet","name":"ITOH ya coffee shop","opening_hours":{"open_now":true},"photos":[{"height":3024,"html_attributions":["<a href=\"https://maps.google.com/maps/contrib/107533922550764383355\">「全国モクモク場所探し」けいご</a>"],"photo_reference":"AfLeUgPs1isqS9hOCF0hD23-KtzK3tBvMgbE1mSqneGMKP1XjFGHQmuXZt7W47Am9Yrt41-5rHj1SU_7FxOERbFyAihBeS-NZAb97rjPgOpZlCSldfthtLtWzfGOxzxHdB_qrmFPJlICoIHO0r9oYsXBA0P4bd7XsTmyVo58p-AgaSpoNltr","width":4032}],"place_id":"ChIJUVni3RiLGGARaG-kcRXnymc","plus_code":{"compound_code":"JPM7+JF Meguro City, Tokyo, Japan","global_code":"8Q7XJPM7+JF"},"price_level":2,"rating":4,"reference":"ChIJUVni3RiLGGARaG-kcRXnymc","scope":"GOOGLE","types":["cafe","store","point_of_interest","food","establishment"],"user_ratings_total":150,"vicinity":"1-chōme-2-22 Shimomeguro, Meguro City"},{"business_status":"OPERATIONAL","geometry":{"location":{"lat":35.6347411,"lng":139.7160844},"viewport":{"northeast":{"lat":35.6361017302915,"lng":139.7174846802915},"southwest":{"lat":35.6334037697085,"lng":139.7147867197085}}},"icon":"https://maps.gstatic.com/mapfiles/place_api/icons/v1/png_71/restaurant-71.png","icon_background_color":"#FF9E67","icon_mask_base_uri":"https://maps.gstatic.com/mapfiles/place_api/icons/v2/restaurant_pinlet","name":"Tendon Tenya","opening_hours":{"open_now":true},"photos":[{"height":4032,"html_attributions":["<a href=\"https://maps.google.com/maps/contrib/116289087708817938757\">DK F</a>"],"photo_reference":"AfLeUgOASV1zRCefLK5EEcZRcrQCAWSorzY17gQ0kRMbtg7zRGrzBnD_P2F0E7Zt4Fg-ISlE2w9s7cKKqmpSxCoSGv3MxE3j3eMjW3inrkSyg8nUWLajZTekMknc6swwhHNcQohuLG5sS7qJFNUbFSTrw6NRPPDPLzh45bzOEveqwbulkwMu","width":3024}],"place_id":"ChIJzWXUXBmLGGAReFt00huiBjo","plus_code":{"compound_code":"JPM8+VC Shinagawa City, Tokyo, Japan","global_code":"8Q7XJPM8+VC"},"price_level":1,"rating":3.5,"reference":"ChIJzWXUXBmLGGAReFt00huiBjo","scope":"GOOGLE","types":["restaurant","point_of_interest","food","establishment"],"user_ratings_total":405,"vicinity":"Koyo Building, 1F, 2-chōme-16−４ Kamiōsaki, Shinagawa City"},{"business_status":"OPERATIONAL","geometry":{"location":{"lat":35.6307647,"lng":139.7139304},"viewport":{"northeast":{"lat":35.63213193029149,"lng":139.7153188802915},"southwest":{"lat":35.6294339697085,"lng":139.7126209197085}}},"icon":"https://maps.gstatic.com/mapfiles/place_api/icons/v1/png_71/restaurant-71.png","icon_background_color":"#FF9E67","icon_mask_base_uri":"https://maps.gstatic.com/mapfiles/place_api/icons/v2/restaurant_pinlet","name":"New American Grill “KANADE TERRACE”","opening_hours":{"open_now":false},"photos":[{"height":2667,"html_attributions":["<a href=\"https://maps.google.com/maps/contrib/107258718863728592561\">KANADE TERRACE</a>"],"photo_reference":"AfLeUgMu7H1PM8GVUEXYrNH7_5WL1HajownlL8awllV5zCNxpLbe2rWPamTD7nhou8GB-X7YNK2_Rhc3YhNSGLn0LjtTcoJ_8H6hp_RnuzyL23CZ9Uywx-Ba4gDJZewjarwqV3DdqwAsZ2WtcNdy5-SzXyyyzm8SqYQGRhZ09bBuDbRyPHXl","width":4000}],"place_id":"ChIJx0sxHB-LGGARpFBANul9NtM","plus_code":{"compound_code":"JPJ7+8H Meguro City, Tokyo, Japan","global_code":"8Q7XJPJ7+8H"},"price_level":2,"rating":4.2,"reference":"ChIJx0sxHB-LGGARpFBANul9NtM","scope":"GOOGLE","types":["restaurant","point_of_interest","food","establishment"],"user_ratings_total":288,"vicinity":"1-chōme-8-1 Shimomeguro, Meguro City"},{"business_status":"OPERATIONAL","geometry":{"location":{"lat":35.6330358,"lng":139.709427},"viewport":{"northeast":{"lat":35.6343783302915,"lng":139.7108067302915},"southwest":{"lat":35.6316803697085,"lng":139.7081087697085}}},"icon":"https://maps.gstatic.com/mapfiles/place_api/icons/v1/png_71/restaurant-71.png","icon_background_color":"#FF9E67","icon_mask_base_uri":"https://maps.gstatic.com/mapfiles/place_api/icons/v2/restaurant_pinlet","name":"LAND","opening_hours":{"open_now":false},"photos":[{"height":451,"html_attributions":["<a href=\"https://maps.google.com/maps/contrib/106676732613255999684\">LAND</a>"],"photo_reference":"AfLeUgNmAVh-iHLoRSVaFVaAfHqGT3DOgTB2ZDl7WhvYtA7_KqgS36IJRjuGFjSvpo2Kjmnl6S0PWMMBMh8bNEqRRvb7Z1TgImLxAa1HBBso2zMpmGv63mKNU_A7OURSezAOC6_xcXsdm-MuxgmQaXubYqDpi3HUWF0TuChgYhO5VYNq60l2","width":800}],"place_id":"ChIJcdp2USKLGGARMp5ZLeGuHiE","plus_code":{"compound_code":"JPM5+6Q Meguro City, Tokyo, Japan","global_code":"8Q7XJPM5+6Q"},"price_level":2,"rating":4.3,"reference":"ChIJcdp2USKLGGARMp5ZLeGuHiE","scope":"GOOGLE","types":["restaurant","point_of_interest","food","establishment"],"user_ratings_total":306,"vicinity":"セントヒルズ目黒 2F, 2-chōme-21−２８ Shimomeguro, Meguro City"},{"business_status":"OPERATIONAL","geometry":{"location":{"lat":35.6342948,"lng":139.7121612},"viewport":{"northeast":{"lat":35.6356974302915,"lng":139.7134784302915},"southwest":{"lat":35.6329994697085,"lng":139.7107804697085}}},"icon":"https://maps.gstatic.com/mapfiles/place_api/icons/v1/png_71/restaurant-71.png","icon_background_color":"#FF9E67","icon_mask_base_uri":"https://maps.gstatic.com/mapfiles/place_api/icons/v2/restaurant_pinlet","name":"Chinmaya Meguro","opening_hours":{"open_now":false},"photos":[{"height":2400,"html_attributions":["<a href=\"https://maps.google.com/maps/contrib/104414973174451180372\">陳麻家 目黒店</a>"],"photo_reference":"AfLeUgPqaJ2XHtQZ6bSnl-Jmz_eznyDi6Z15Pf6pfxNCbghrc7SuPUEXqs4mA5mjzq-O_uCuaR6Zz-lqQIF0-vY3gt-5CIPLXhDPsghoErADRogQYtN8QK1Knhy1sq64XrWhqbpv3WuXh9xDcPdssaBMueFmMc86YbnAX9zs4JdeVUxejihH","width":3600}],"place_id":"ChIJT0MehhiLGGARrMJ-RCbFEmk","plus_code":{"compound_code":"JPM6+PV Meguro City, Tokyo, Japan","global_code":"8Q7XJPM6+PV"},"price_level":2,"rating":3.8,"reference":"ChIJT0MehhiLGGARrMJ-RCbFEmk","scope":"GOOGLE","types":["restaurant","point_of_interest","food","establishment"],"user_ratings_total":197,"vicinity":"1-chōme-5-20 Shimomeguro, Meguro City"},{"business_status":"OPERATIONAL","geometry":{"location":{"lat":35.6342187,"lng":139.7140603},"viewport":{"northeast":{"lat":35.63552248029151,"lng":139.7153797802915},"southwest":{"lat":35.63282451970851,"lng":139.7126818197085}}},"icon":"https://maps.gstatic.com/mapfiles/place_api/icons/v1/png_71/restaurant-71.png","icon_background_color":"#FF9E67","icon_mask_base_uri":"https://maps.gstatic.com/mapfiles/place_api/icons/v2/restaurant_pinlet","name":"Ichirin Spicy Noodles Meguro","opening_hours":{"open_now":false},"photos":[{"height":538,"html_attributions":["<a href=\"https://maps.google.com/maps/contrib/109804816553101656809\">辛麺屋 一輪 目黒店</a>"],"photo_reference":"AfLeUgPv-IEmw9jm_NnxrhS2IvjAAzvj6vKnc9IGYT7nR9JnhvgJoW4HJYWaIeEzCByIYyy_Ice6KCpktKYPFv95Wsa1tHOpC48S-EDbKFBIi8n12Fwbb5rjiP7PgNvhKwn66scFisrGU_MI8vjoNCaUgbAVGHNHdlVVTGOce8kXk93MkQ-Q","width":807}],"place_id":"ChIJ21HpHxmLGGAR1OMDGlVqIv8","plus_code":{"compound_code":"JPM7+MJ Meguro City, Tokyo, Japan","global_code":"8Q7XJPM7+MJ"},"price_level":2,"rating":3.7,"reference":"ChIJ21HpHxmLGGAR1OMDGlVqIv8","scope":"GOOGLE","types":["restaurant","point_of_interest","food","establishment"],"user_ratings_total":330,"vicinity":"脇田ビル 1F, 1-chōme-4−８ Meguro, Meguro City"},{"geometry":{"location":{"lat":35.65808130000001,"lng":139.7515077},"viewport":{"northeast":{"lat":35.68270876520896,"lng":139.7819884821575},"southwest":{"lat":35.62288889971529,"lng":139.708744908729}}},"icon":"https://maps.gstatic.com/mapfiles/place_api/icons/v1/png_71/geocode-71.png","icon_background_color":"#7B9EB0","icon_mask_base_uri":"https://maps.gstatic.com/mapfiles/place_api/icons/v2/generic_pinlet","name":"Minato City","photos":[{"height":4032,"html_attributions":["<a href=\"https://maps.google.com/maps/contrib/100458463861154420797\">BON Bon</a>"],"photo_reference":"AfLeUgN2MNCZgF2TOYKA-AcVr7VBxjohw0fjOCzai9qjYmcRlfPgSJLOj_PBp8PuqHKLlFnXRliri1q_jJP0Dv6FFT6ZRFe7d2mBbyoIS9Lhlx9WG2IcQEidNUc9il5xEUCBUX_2mRhoQYOSUdrz3ViAfUdFt9jB15wD9BKqqi248dbtUA01","width":3024}],"place_id":"ChIJ8yIZtLuLGGARrGzw8nX96zM","reference":"ChIJ8yIZtLuLGGARrGzw8nX96zM","scope":"GOOGLE","types":["locality","political"],"vicinity":"Minato City"}],"status":"OK"}
