{"html_attributions":[],"next_page_token":"AfLeUgNtojhJwYtthZIXcb_bF0kXKFF3tLPBNt6RAt-UR5WHw8dHvmVW8aU-DLNOAayOgZJtwr4eaiMDnFmciEd0x_uX_s4U6bP_jjCZxZ9yM6gyVtWiYTgnFW1N-tBI4TL--dF2-KgzCPYBp38fjofLehLMhQsWslNWbSTda1PWam3oq2WYESsBJJXViWRjiDSUjmak5Fw1nPqfTSWXARXlmwCRxpH8knGnVvCib8GIZDqNSlE7ZyVmAoR6seyg0EbxWTaWASeDgCVBXT384eOAn5ZHzqhqm0zFpxBqtw3D0qcSAcO97WuQhi844zp7zdGbw9Wr3ulYnac-lvH2hPpSdkyu0p3n3KIdtwEGZPLOiDiq1PAUyCfnLo2bf9MtDF4N6qlkMBWZIoWVMD6T90qOPtfEXJ8suvpmc8Ds1MWCUxDc","results":[{"geometry":{"location":{"lat":35.6803997,"lng":139.7690174},"viewport":{"northeast":{"lat":35.81744534519053,"lng":139.918874338966},"southwest":{"lat":35.51904202902757,"lng":139.5628610838164}}},"icon":"https://maps.gstatic.com/mapfiles/place_api/icons/v1/png_71/geocode-71.png","icon_background_color":"#7B9EB0","icon_mask_base_uri":"https://maps.gstatic.com/mapfiles/place_api/icons/v2/generic_pinlet","name":"Tokyo","photos":[{"height":1799,"html_attributions":["<a href=\"https://maps.google.com/maps/contrib/110543873949960736982\">saleem zaid</a>"],"photo_reference":"AfLeUgPs8TO5Xm_1wy6TeXVHf2zi0zSBdgYLEiek3VvBvbeVu9hwONiy4IjLMs-vVWk9dxT2sCxLWkx-3uhnsHPj4RADSlbdG8LP3bK-x4HkXYT0OdVivF29hDrk577EKfJ343obHgRiySZLF9_C_8KBHZfhKLdanQD0hRZKossmRtFBeLRo","width":1080}],"place_id":"ChIJXSModoWLGGARILWiCfeu2M0","reference":"ChIJXSModoWLGGARILWiCfeu2M0","scope":"GOOGLE","types":["colloquial_area","locality","political"],"vicinity":"Tokyo"},{"business_status":"OPERATIONAL","geometry":{"location":{"lat":35.63417099999999,"lng":139.7134167},"viewport":{"northeast":{"lat":35.63553428029149,"lng":139.7147078302915},"southwest":{"lat":35.6328363197085,"lng":139.7120098697085}}},"icon":"https://maps.gstatic.com/mapfiles/place_api/icons/v1/png_71/lodging-71.png","icon_background_color":"#909CE1","icon_mask_base_uri":"https://maps.gstatic.com/mapfiles/place_api/icons/v2/hotel_pinlet","name":"Hotel Mid In Meguro Ekimae","photos":[{"height":2880,"html_attributions":["<a href=\"https://maps.google.com/maps/contrib/111298134419292079115\">sakura okuma</a>"],"photo_reference":"AfLeUgOQHSp8JrfHiwywyRNyXnum0oCrFZ4FZZBmFyySxznzuU4obe-PB0EQADOHfl8SAimhRa5snvvsKjBEOYRhOsMeQ8dxnHJWDXD1HNc13jZHzWEce_U8eeKM19I2VsaAZKMzcdagwaw49mGyDU6W8Bi65jutJybzsvWg17Ds3td3VRU1","width":2160}],"place_id":"ChIJR5ZJ7xiLGGAR3bWuJRimL8U","plus_code":{"compound_code":"JPM7+M9 Meguro City, Tokyo, Japan","global_code":"8Q7XJPM7+M9"},"rating":3.5,"reference":"ChIJR5ZJ7xiLGGAR3bWuJRimL8U","scope":"GOOGLE","types":["lodging","point_of_interest","establishment"],"user_ratings_total":132,"vicinity":"1-chōme-2-19 Shimomeguro, Meguro City"},{"business_status":"OPERATIONAL","geometry":{"location":{"lat":35.6368258,"lng":139.7137994},"viewport":{"northeast":{"lat":35.6380949302915,"lng":139.7153578802915},"southwest":{"lat":35.6353969697085,"lng":139.7126599197085}}},"icon":"https://maps.gstatic.com/mapfiles/place_api/icons/v1/png_71/lodging-71.png","icon_background_color":"#909CE1","icon_mask_base_uri":"https://maps.gstatic.com/mapfiles/place_api/icons/v2/hotel_pinlet","name":"Hotel Princess Garden","photos":[{"height":2160,"html_attributions":["<a href=\"https://maps.google.com/maps/contrib/115365209007991200015\">ぴぴねこ</a>"],"photo_reference":"AfLeUgPhwFqMNvq6TxT-lPSDTD80Gs-TKqg5bE4iofKrVBoSHv_vU2xy5t5OfAMF2kwTInuhqUVx6c8EhfIeU5a8BfRwc-4utwJUsPw9BSsz2WeC-2wScnaOVbBhk4Jx89ZdYncdTT3g7u8lB9DhgBClPMFVy7Gli6YFqJ5VGjQ9sDLTiTD1","width":3840}],"place_id":"ChIJcfsdMhiLGGARjCeecAYbqCE","plus_code":{"compound_code":"JPP7+PG Shinagawa City, Tokyo, Japan","global_code":"8Q7XJPP7+PG"},"rating":3.4,"reference":"ChIJcfsdMhiLGGARjCeecAYbqCE","scope":"GOOGLE","types":["lodging","point_of_interest","establishment"],"user_ratings_total":627,"vicinity":"2-chōme-23-7 Kamiōsaki, Shinagawa City"},{"business_status":"OPERATIONAL","geometry":{"location":{"lat":35.6339773,"lng":139.7137202},"viewport":{"northeast":{"lat":35.63542958029149,"lng":139.7151431802915},"southwest":{"lat":35.6327316197085,"lng":139.7124452197085}}},"icon":"https://maps.gstatic.com/mapfiles/place_api/icons/v1/png_71/restaurant-71.png","icon_background_color":"#FF9E67","icon_mask_base_uri":"https://maps.gstatic.com/mapfiles/place_api/icons/v2/restaurant_pinlet","name":"Hungry Heaven Meguro","opening_hours":{"open_now":false},"photos":[{"height":1108,"html_attributions":["<a href=\"https://maps.google.com/maps/contrib/108446875978599210447\">ちほ</a>"],"photo_reference":"AfLeUgP_iNJkididzRuYwmEw_WkFDoVguKhlQv6wdBS9C3iw9E803JQw4cOSsOW0LMILJ2ueUraUeOf0eCUicQjwcz8tUi_mAC7BBRWhq_xhXwB_WyTictnPbuBLhiQBhOUUeLeOuhRZ7rPoW6xk2U-XWKQMOLQqfibEnPxhiaD-tZarcP0D","width":1478}],"place_id":"ChIJUVni3RiLGGARpH7JcN61Xyc","plus_code":{"compound_code":"JPM7+HF Meguro City, Tokyo, Japan","global_code":"8Q7XJPM7+HF"},"price_level":2,"rating":4.1,"reference":"ChIJUVni3RiLGGARpH7JcN61Xyc","scope":"GOOGLE","types":["restaurant","point_of_interest","food","establishment"],"user_ratings_total":650,"vicinity":"セザール目黒 2F, 1-chōme-2−２２ Shimomeguro, Meguro City"},{"business_status":"CLOSED_TEMPORARILY","geometry":{"location":{"lat":35.6340648,"lng":139.7158922},"viewport":{"northeast":{"lat":35.6354682802915,"lng":139.7173962302915},"southwest":{"lat":35.6327703197085,"lng":139.7146982697085}}},"icon":"https://maps.gstatic.com/mapfiles/place_api/icons/v1/png_71/restaurant-71.png","icon_background_color":"#FF9E67","icon_mask_base_uri":"https://maps.gstatic.com/mapfiles/place_api/icons/v2/restaurant_pinlet","name":"a la campagne Meguro 1F","permanently_closed":true,"photos":[{"height":350,"html_attributions":["<a href=\"https://maps.google.com/maps/contrib/106879959247203544814\">ア・ラ・カンパーニュ 目黒店</a>"],"photo_reference":"AfLeUgMFG86RrHlMSVeLiRqaJThA1xblZ7ROTi2FyoMb98fC90X2fN_fCNwQWPTkE4s1qc-hqEVZ9VHZsqrV6_wxObaLlLGxahpzuOmVnxnfkFE5tvSGB_Zp3o530Bsy9I8RYMpuE9Dg5NqWqQeeiifeZXjd2oISSg78RxoMV8r_MUdbF3SR","width":470}],"place_id":"ChIJL0ReThmLGGARmTPfngRIY_M","plus_code":{"compound_code":"JPM8+J9 Shinagawa City, Tokyo, Japan","global_code":"8Q7XJPM8+J9"},"price_level":2,"rating":4,"reference":"ChIJL0ReThmLGGARmTPfngRIY_M","scope":"GOOGLE","types":["bakery","store","point_of_interest","food","establishment"],"user_ratings_total":64,"vicinity":"アトレ目黒1A館, 1F, 2-chōme-１６−９ Kamiōsaki, Shinagawa City品川区"},{"business_status":"OPERATIONAL","geometry":{"location":{"lat":35.6415837,"lng":139.7154177},"viewport":{"northeast":{"lat":35.6431170802915,"lng":139.7167278302915},"southwest":{"lat":35.6404191197085,"lng":139.7140298697085}}},"icon":"https://maps.gstatic.com/mapfiles/place_api/icons/v1/png_71/lodging-71.png","icon_background_color":"#909CE1","icon_mask_base_uri":"https://maps.gstatic.com/mapfiles/place_api/icons/v2/hotel_pinlet","name":"The Westin Tokyo","photos":[{"height":810,"html_attributions":["<a href=\"https://maps.google.com/maps/contrib/100135498071067864868\">The Westin Tokyo</a>"],"photo_reference":"AfLeUgOPT4lPQPry2JTeCXu3iHAU0Y7Fv0qpL7x_BZYReuuIuuHzYwwUUIcY4_4_qugUHCGUE3dpjaajfI-AehUPaIZh-e0icJ5kInbuECUrx3s_YuVMWNXAFydxGAkS29mm-THSkmCDyHZfyJBdsUXjgS48r3cMoe1ChJELxA3A0EpQwvER","width":1440}],"place_id":"ChIJO4Ou6haLGGARdRY9-ojhl74","plus_code":{"compound_code":"JPR8+J5 Meguro City, Tokyo, Japan","global_code":"8Q7XJPR8+J5"},"rating":4.3,"reference":"ChIJO4Ou6haLGGARdRY9-ojhl74","scope":"GOOGLE","types":["lodging","point_of_interest","establishment"],"user_ratings_total":4831,"vicinity":"1-chōme-4-1 Mita, Meguro City"},{"business_status":"OPERATIONAL","geometry":{"location":{"lat":35.6419444,"lng":139.7133333},"viewport":{"northeast":{"lat":35.6434571302915,"lng":139.7142343302915},"southwest":{"lat":35.6407591697085,"lng":139.7115363697085}}},"icon":"https://maps.gstatic.com/mapfiles/place_api/icons/v1/png_71/restaurant-71.png","icon_background_color":"#FF9E67","icon_mask_base_uri":"https://maps.gstatic.com/mapfiles/place_api/icons/v2/restaurant_pinlet","name":"Hana Chibo Okonomiyaki","opening_hours":{"open_now":false},"photos":[{"height":426,"html_attributions":["<a href=\"https://maps.google.com/maps/contrib/106199168971244337589\">華 千房 恵比寿ガーデンプレイス店</a>"],"photo_reference":"AfLeUgNh-Qb1mGeGuCSx8VYWtM4fcS8qq0RwjejRcPJrNN12Ie_xuscWwJ_Te0P8ojlKv3-EcagMLmFRgCpTG9bEDjecMw6BFN9t9YJsZAYFdEPJV8LuQ0j8zDd99XD8_6FB0vb5cNZODf_qvbh6va83eQ21qM6YoEWlf6MhyWkRxVl7cNOY","width":640}],"place_id":"ChIJzW-R2hWLGGARgN9Xw36Zi5Q","plus_code":{"compound_code":"JPR7+Q8 Shibuya City, Tokyo, Japan","global_code":"8Q7XJPR7+Q8"},"price_level":2,"rating":3.8,"reference":"ChIJzW-R2hWLGGARgN9Xw36Zi5Q","scope":"GOOGLE","types":["restaurant","point_of_interest","food","establishment"],"user_ratings_total":122,"vicinity":"ガーデンプレイスタワー３８F, 4-chōme-20−３ Ebisu, Shibuya City"},{"business_status":"OPERATIONAL","geometry":{"location":{"lat":35.6420263,"lng":139.7132427},"viewport":{"northeast":{"lat":35.64327378029149,"lng":139.7143222302915},"southwest":{"lat":35.6405758197085,"lng":139.7116242697085}}},"icon":"https://maps.gstatic.com/mapfiles/place_api/icons/v1/png_71/restaurant-71.png","icon_background_color":"#FF9E67","icon_mask_base_uri":"https://maps.gstatic.com/mapfiles/place_api/icons/v2/restaurant_pinlet","name":"Sushi Taka Ebisu Garden Place Tower 38F","opening_hours":{"open_now":false},"photos":[{"height":3024,"html_attributions":["<a href=\"https://maps.google.com/maps/contrib/104694583236609319710\">Bull Dogg</a>"],"photo_reference":"AfLeUgOG8Ly4J2dt_H25D3bjtdu3_V1sYdP9PDXDBEbtDA1OM5MV8MmNijMNQldEnO55M7bDbM1SpUaiVAF5o1yK2p_t2lWyPWtwfdy3pIuoM5CtGKpiBBuF2pHqP4PkZSlLDOLZAPFPMpIM4NafLJG_3iEY5XrUBUlxpjja1g0Cv0eeV9x6","width":4032}],"place_id":"ChIJzW-R2hWLGGARJUTTVjGkSsY","plus_code":{"compound_code":"JPR7+R7 Shibuya City, Tokyo, Japan","global_code":"8Q7XJPR7+R7"},"price_level":2,"rating":3.9,"reference":"ChIJzW-R2hWLGGARJUTTVjGkSsY","scope":"GOOGLE","types":["meal_takeaway","restaurant","point_of_interest","food","establishment"],"user_ratings_total":104,"vicinity":"恵比寿ガーデンプレイスタワー38階, 4-chōme-20−３ Ebisu, Shibuya City"},{"business_status":"OPERATIONAL","geometry":{"location":{"lat":35.6396926,"lng":139.7112703},"viewport":{"northeast":{"lat":35.64103743029149,"lng":139.7126273302915},"southwest":{"lat":35.6383394697085,"lng":139.7099293697085}}},"icon":"https://maps.gstatic.com/mapfiles/place_api/icons/v1/png_71/restaurant-71.png","icon_background_color":"#FF9E67","icon_mask_base_uri":"https://maps.gstatic.com/mapfiles/place_api/icons/v2/restaurant_pinlet","name":"Ramen Tai","opening_hours":{"open_now":false},"photos":[{"height":3024,"html_attributions":["<a href=\"https://maps.google.com/maps/contrib/109865897640939782982\">m m</a>"],"photo_reference":"AfLeUgM0nznQjF6C4AlOGaJO918tRH8gSxFvC2peET1nhVAEH0estsTylb6yMhmTVOFzHsvDf0h9iOMIp_vLVBfIAZl-NgUTwqIIUISaKklYhusRweSBbwaKExhPALyFLCE1XfqPzN-zl9ST5rfb9oBX8unvzF9edDegxhpeHSDJ3R4772CK","width":4032}],"place_id":"ChIJD7eMjD2LGGARstWHVxZGMMI","plus_code":{"compound_code":"JPQ6+VG Meguro City, Tokyo, Japan","global_code":"8Q7XJPQ6+VG"},"price_level":1,"rating":4.2,"reference":"ChIJD7eMjD2LGGARstWHVxZGMMI","scope":"GOOGLE","types":["restaurant","point_of_interest","food","establishment"],"user_ratings_total":179,"vicinity":"2-chōme-7-18 Mita, Meguro City"},{"business_status":"OPERATIONAL","geometry":{"location":{"lat":35.6359331,"lng":139.7060162},"viewport":{"northeast":{"lat":35.6372988802915,"lng":139.7073743302915},"southwest":{"lat":35.6346009197085,"lng":139.7046763697085}}},"icon":"https://maps.gstatic.com/mapfiles/place_api/icons/v1/png_71/restaurant-71.png","icon_background_color":"#FF9E67","icon_mask_base_uri":"https://maps.gstatic.com/mapfiles/place_api/icons/v2/restaurant_pinlet","name":"gentille","opening_hours":{"open_now":false},"photos":[{"height":3024,"html_attributions":["<a href=\"https://maps.google.com/maps/contrib/103364499124302662540\">うんじEUNJI NAM</a>"],"photo_reference":"AfLeUgM3PhblpBODZTIAljUartDvlyMYeIw3tZT5mG3aQAgkGmVU5G2oTwUyIbzgNIOiruB-DVrd1YaUUOVevCLbVqCeCEW5fYbmuZxvEAHEfovDOztHM0aVNT7sZvuRm2Tro3AC2hYGjzjeyX9kQaVhuhViTMGbsx-7txmCQgna1puqLoCu","width":4032}],"place_id":"ChIJh05HZDuLGGAR9HpQ05rKQMc","plus_code":{"compound_code":"JPP4+9C Meguro City, Tokyo, Japan","global_code":"8Q7XJPP4+9C"},"price_level":2,"rating":3.8,"reference":"ChIJh05HZDuLGGAR9HpQ05rKQMc","scope":"GOOGLE","types":["bakery","store","point_of_interest","food","establishment"],"user_ratings_total":157,"vicinity":"3-chōme-1-1 Meguro, Meguro City"},{"business_status":"OPERATIONAL","geometry":{"location":{"lat":35.6333315,"lng":139.7093151},"viewport":{"northeast":{"lat":35.6346139802915,"lng":139.7107187802915},"southwest":{"lat":35.6319160197085,"lng":139.7080208197085}}},"icon":"https://maps.gstatic.com/mapfiles/place_api/icons/v1/png_71/generic_business-71.png","icon_background_color":"#7B9EB0","icon_mask_base_uri":"https://maps.gstatic.com/mapfiles/place_api/icons/v2/generic_pinlet","name":"権之助坂スタジオ","opening_hours":{"open_now":true},"photos":[{"height":4032,"html_attributions":["<a href=\"https://maps.google.com/maps/contrib/105726870239350480579\">Amalia Evstratova</a>"],"photo_reference":"AfLeUgNIpHpxI6UYHzcv7zOeLV9RXfVMZxXsaY126ZtuinHyJ2EuXWdoPbyACaVknGoyz36OTuClMJbIH0zfZEPqnA1HwWmoYURHJnKyLi_kpbua4xPxn3McByDRhEWJjru83vtFq9_W5xjzqFsEhZnII4NyeWcbtz5-EFX_7RWNqBMOMubP","width":3024}],"place_id":"ChIJOS3jVSKLGGARVpfJKH2Asb4","plus_code":{"compound_code":"JPM5+8P Meguro City, Tokyo, Japan","global_code":"8Q7XJPM5+8P"},"rating":4,"reference":"ChIJOS3jVSKLGGARVpfJKH2Asb4","scope":"GOOGLE","types":["point_of_interest","establishment"],"user_ratings_total":19,"vicinity":"2-chōme-9-6 Meguro, 目黒区 Meguro City"},{"business_status":"OPERATIONAL","geometry":{"location":{"lat":35.6310471,"lng":139.7151523},"viewport":{"northeast":{"lat":35.63243693029149,"lng":139.7167261802915},"southwest":{"lat":35.6297389697085,"lng":139.7140282197085}}},"icon":"https://maps.gstatic.com/mapfiles/place_api/icons/v1/png_71/school-71.png","icon_background_color":"#7B9EB0","icon_mask_base_uri":"https://maps.gstatic.com/mapfiles/place_api/icons/v2/school_pinlet","name":"杉野学園ドレスメーカー学院第二校舎","photos":[{"height":2160,"html_attributions":["<a href=\"https://maps.google.com/maps/contrib/117301545263790514230\">TARO SHIBUYA</a>"],"photo_reference":"AfLeUgMKCRONL5YbSTQ-MVfR53S5LuaiOZjDZVj0Xu6N_OCFFhZ3abp1QAH7y_J0Sf1UisNiM_xPMJt6Re_CBV375IurAtWqc3q2NTtZT-ijHPB89JzMht_XlsrWuAQvXqFbz4fCQZGwDHoigchTrMNRqriChlrsqYpZpPOeiWv8pRTM5WQv","width":2160}],"place_id":"ChIJwWM0Xx6LGGAR0-LOYAHIOGw","plus_code":{"compound_code":"JPJ8+C3 Shinagawa City, Tokyo, Japan","global_code":"8Q7XJPJ8+C3"},"rating":1,"reference":"ChIJwWM0Xx6LGGAR0-LOYAHIOGw","scope":"GOOGLE","types":["school","point_of_interest","establishment"],"user_ratings_total":1,"vicinity":"5 Chome, Shinagawa City"},{"business_status":"OPERATIONAL","geometry":{"location":{"lat":35.6346324,"lng":139.7124305},"viewport":{"northeast":{"lat":35.6359296802915,"lng":139.7137534302915},"southwest":{"lat":35.6332317197085,"lng":139.7110554697085}}},"icon":"https://maps.gstatic.com/mapfiles/place_api/icons/v1/png_71/restaurant-71.png","icon_background_color":"#FF9E67","icon_mask_base_uri":"https://maps.gstatic.com/mapfiles/place_api/icons/v2/restaurant_pinlet","name":"大陸食堂","opening_hours":{"open_now":false},"photos":[{"height":3712,"html_attributions":["<a href=\"https://maps.google.com/maps/contrib/114626470231110504083\">大陸食堂</a>"],"photo_reference":"AfLeUgOaRb24yQH1X_xRFvF9i4mWQD_X_XqOXb_KHn9Ad8bnN-xPDI2bpVdZWTviUbXXOPve0zUOaQJHW6P5Zuou62k7-X3nfglM0Q3gkqz7eljK9x8PEjK7MMzxrogT1wUW94StYiJAbXPZ2gi5AnDxNdzN_PUZeWAhWIvzwHEhVjQ84fsT","width":5568}],"place_id":"ChIJKxn3YhiLGGARbqnsWsqVLWs","plus_code":{"compound_code":"JPM6+VX Meguro City, Tokyo, Japan","global_code":"8Q7XJPM6+VX"},"price_level":2,"rating":3.7,"reference":"ChIJKxn3YhiLGGARbqnsWsqVLWs","scope":"GOOGLE","types":["restaurant","point_of_interest","food","establishment"],"user_ratings_total":210,"vicinity":"1-chōme-5-19 Meguro, Meguro City"},{"business_status":"OPERATIONAL","geometry":{"location":{"lat":35.63410930000001,"lng":139.713713},"viewport":{"northeast":{"lat":35.6354766802915,"lng":139.7151395802915},"southwest":{"lat":35.6327787197085,"lng":139.7124416197085}}},"icon":"https://maps.gstatic.com/mapfiles/place_api/icons/v1/png_71/cafe-71.png","icon_background_color":"#FF9E67","icon_mask_base_uri":"https://maps.gstatic.com/mapfiles/place_api/icons/v2/cafe_pinlet","name":"ITOH ya coffee shop","opening_hours":{"open_now":true},"photos":[{"height":3024,"html_attributions":["<a href=\"https://maps.google.com/maps/contrib/107533922550764383355\">「全国モクモク場所探し」けいご</a>"],"photo_reference":"AfLeUgPS0PHIHlkQcW03O5xpuLcL-k_xuzF_jInQUI5AY8gQFT_0IkdcnvxxcxXffAZFhP9uZRZjE1DebD7g-6Q7rYef1gyoCfD8WBGjsCkXobjAPkA7QF1u5G9xFFhk-UuL3EpLDUN7NcM2Lb2ZlpreTEciPzeYusdbIooLR47ldI0lhKJG","width":4032}],"place_id":"ChIJUVni3RiLGGARaG-kcRXnymc","plus_code":{"compound_code":"JPM7+JF Meguro City, Tokyo, Japan","global_code":"8Q7XJPM7+JF"},"price_level":2,"rating":4,"reference":"ChIJUVni3RiLGGARaG-kcRXnymc","scope":"GOOGLE","types":["cafe","store","point_of_interest","food","establishment"],"user_ratings_total":150,"vicinity":"1-chōme-2-22 Shimomeguro, Meguro City"},{"business_status":"OPERATIONAL","geometry":{"location":{"lat":35.6347411,"lng":139.7160844},"viewport":{"northeast":{"lat":35.6361017302915,"lng":139.7174846802915},"southwest":{"lat":35.6334037697085,"lng":139.7147867197085}}},"icon":"https://maps.gstatic.com/mapfiles/place_api/icons/v1/png_71/restaurant-71.png","icon_background_color":"#FF9E67","icon_mask_base_uri":"https://maps.gstatic.com/mapfiles/place_api/icons/v2/restaurant_pinlet","name":"Tendon Tenya","opening_hours":{"open_now":true},"photos":[{"height":4032,"html_attributions":["<a href=\"https://maps.google.com/maps/contrib/116289087708817938757\">DK F</a>"],"photo_reference":"AfLeUgMbWf-Pi6GdE7OwIFhjMA6gWheZcOm6rB5WrA0kfqJEFbCst10HXh7KH_B36mgD2a7yQlTGK7f7ZeJAVrYqW17YJQJK8GaJzaQaXYlByzEk9TWu_FOkfcwqaVbWyrWRTIWkRk89IE6loe1TclKarm3F-AP6Zk6nd8ANtuPe0hUX_aa7","width":3024}],"place_id":"ChIJzWXUXBmLGGAReFt00huiBjo","plus_code":{"compound_code":"JPM8+VC Shinagawa City, Tokyo, Japan","global_code":"8Q7XJPM8+VC"},"price_level":1,"rating":3.5,"reference":"ChIJzWXUXBmLGGAReFt00huiBjo","scope":"GOOGLE","types":["restaurant","point_of_interest","food","establishment"],"user_ratings_total":405,"vicinity":"Koyo Building, 1F, 2-chōme-16−４ Kamiōsaki, Shinagawa City"},{"business_status":"OPERATIONAL","geometry":{"location":{"lat":35.6307647,"lng":139.7139304},"viewport":{"northeast":{"lat":35.63213193029149,"lng":139.7153188802915},"southwest":{"lat":35.6294339697085,"lng":139.7126209197085}}},"icon":"https://maps.gstatic.com/mapfiles/place_api/icons/v1/png_71/restaurant-71.png","icon_background_color":"#FF9E67","icon_mask_base_uri":"https://maps.gstatic.com/mapfiles/place_api/icons/v2/restaurant_pinlet","name":"New American Grill “KANADE TERRACE”","opening_hours":{"open_now":false},"photos":[{"height":2667,"html_attributions":["<a href=\"https://maps.google.com/maps/contrib/107258718863728592561\">KANADE TERRACE</a>"],"photo_reference":"AfLeUgOuxQyycPGvGDgyU7uyYL48EllQv172-UaCpSA5TvAFbLH6ioKb-fZHGOVUFfCWIEMgQNQ_t0KMiir5C7G4-x_yV27wGsMqViB8n_dVDZeGO-4S-ZP8XmSItNYT1hBF2wTDIEEtFt8DyZ54Bad9ZhkleQjpDPYnOf4v0yJfqy3HV-tV","width":4000}],"place_id":"ChIJx0sxHB-LGGARpFBANul9NtM","plus_code":{"compound_code":"JPJ7+8H Meguro City, Tokyo, Japan","global_code":"8Q7XJPJ7+8H"},"price_level":2,"rating":4.2,"reference":"ChIJx0sxHB-LGGARpFBANul9NtM","scope":"GOOGLE","types":["restaurant","point_of_interest","food","establishment"],"user_ratings_total":288,"vicinity":"1-chōme-8-1 Shimomeguro, Meguro City"},{"business_status":"OPERATIONAL","geometry":{"location":{"lat":35.6330358,"lng":139.709427},"viewport":{"northeast":{"lat":35.6343783302915,"lng":139.7108067302915},"southwest":{"lat":35.6316803697085,"lng":139.7081087697085}}},"icon":"https://maps.gstatic.com/mapfiles/place_api/icons/v1/png_71/restaurant-71.png","icon_background_color":"#FF9E67","icon_mask_base_uri":"https://maps.gstatic.com/mapfiles/place_api/icons/v2/restaurant_pinlet","name":"LAND","opening_hours":{"open_now":false},"photos":[{"height":451,"html_attributions":["<a href=\"https://maps.google.com/maps/contrib/106676732613255999684\">LAND</a>"],"photo_reference":"AfLeUgOXHlImjOli1TMPUCLnNezX7JIndAsMaOMWqCG5cEj-CFgAxvKDgeXd8AbSQKn_V_sDtA-d3J6fuRR6YnYSbvdUtBzyHmjCHJuPjUaZKPAuaLjCq0XKzY981RFv8_rx8nSyaJCzq7fV18eQrvR0hDPAH0e1_HjQKVpi3Rc2iZKfkJjh","width":800}],"place_id":"ChIJcdp2USKLGGARMp5ZLeGuHiE","plus_code":{"compound_code":"JPM5+6Q Meguro City, Tokyo, Japan","global_code":"8Q7XJPM5+6Q"},"price_level":2,"rating":4.3,"reference":"ChIJcdp2USKLGGARMp5ZLeGuHiE","scope":"GOOGLE","types":["restaurant","point_of_interest","food","establishment"],"user_ratings_total":306,"vicinity":"セントヒルズ目黒 2F, 2-chōme-21−２８ Shimomeguro, Meguro City"},{"business_status":"OPERATIONAL","geometry":{"location":{"lat":35.6342948,"lng":139.7121612},"viewport":{"northeast":{"lat":35.6356974302915,"lng":139.7134784302915},"southwest":{"lat":35.6329994697085,"lng":139.7107804697085}}},"icon":"https://maps.gstatic.com/mapfiles/place_api/icons/v1/png_71/restaurant-71.png","icon_background_color":"#FF9E67","icon_mask_base_uri":"https://maps.gstatic.com/mapfiles/place_api/icons/v2/restaurant_pinlet","name":"Chinmaya Meguro","opening_hours":{"open_now":false},"photos":[{"height":2400,"html_attributions":["<a href=\"https://maps.google.com/maps/contrib/104414973174451180372\">陳麻家 目黒店</a>"],"photo_reference":"AfLeUgPwpNbTRcYHLIvs88ht4XDrdNpIIePMDOWjmaVjcojO7Krqbbedzr1RrR9bmk_Su5CakPHbiqJfLi4fNdDZ5jCQnOi_9lhRmRh8LdREeCxVtvpsOB39kXNlU-naQ4u46XzbRHbEj7HowmPa77_BiO4R0u9EBP-TbOqEWFlt6muQ3lw2","width":3600}],"place_id":"ChIJT0MehhiLGGARrMJ-RCbFEmk","plus_code":{"compound_code":"JPM6+PV Meguro City, Tokyo, Japan","global_code":"8Q7XJPM6+PV"},"price_level":2,"rating":3.8,"reference":"ChIJT0MehhiLGGARrMJ-RCbFEmk","scope":"GOOGLE","types":["restaurant","point_of_interest","food","establishment"],"user_ratings_total":197,"vicinity":"1-chōme-5-20 Shimomeguro, Meguro City"},{"business_status":"OPERATIONAL","geometry":{"location":{"lat":35.6342187,"lng":139.7140603},"viewport":{"northeast":{"lat":35.63552248029151,"lng":139.7153797802915},"southwest":{"lat":35.63282451970851,"lng":139.7126818197085}}},"icon":"https://maps.gstatic.com/mapfiles/place_api/icons/v1/png_71/restaurant-71.png","icon_background_color":"#FF9E67","icon_mask_base_uri":"https://maps.gstatic.com/mapfiles/place_api/icons/v2/restaurant_pinlet","name":"Ichirin Spicy Noodles Meguro","opening_hours":{"open_now":false},"photos":[{"height":538,"html_attributions":["<a href=\"https://maps.google.com/maps/contrib/109804816553101656809\">辛麺屋 一輪 目黒店</a>"],"photo_reference":"AfLeUgO1ihnkT4UsTVEx5Y-Bt5kIJssPovsKWhzXj7iHeUcCAvWzgRG6YWoy3e9EjkepRHoOy09ryXng-f2v2zYTnmCDWsxYHtciKQYyGQuPX8z8cv0MAO-Nkb6B3ao2Tz6H7eivZr3RwqAr_I1ViND-kCuD9JhNWkV1sClfiWTcQXEx8ZF8","width":807}],"place_id":"ChIJ21HpHxmLGGAR1OMDGlVqIv8","plus_code":{"compound_code":"JPM7+MJ Meguro City, Tokyo, Japan","global_code":"8Q7XJPM7+MJ"},"price_level":2,"rating":3.7,"reference":"ChIJ21HpHxmLGGAR1OMDGlVqIv8","scope":"GOOGLE","types":["restaurant","point_of_interest","food","establishment"],"user_ratings_total":330,"vicinity":"脇田ビル 1F, 1-chōme-4−８ Meguro, Meguro City"},{"geometry":{"location":{"lat":35.65808130000001,"lng":139.7515077},"viewport":{"northeast":{"lat":35.68270876520896,"lng":139.7819884821575},"southwest":{"lat":35.62288889971529,"lng":139.708744908729}}},"icon":"https://maps.gstatic.com/mapfiles/place_api/icons/v1/png_71/geocode-71.png","icon_background_color":"#7B9EB0","icon_mask_base_uri":"https://maps.gstatic.com/mapfiles/place_api/icons/v2/generic_pinlet","name":"Minato City","photos":[{"height":4032,"html_attributions":["<a href=\"https://maps.google.com/maps/contrib/100458463861154420797\">BON Bon</a>"],"photo_reference":"AfLeUgOGBIK1zzoZ4sXAOYKPs3URnYX-m3zUwfysmdSQlGnL6MHqxH6l144dl-bgzhWrUe4P07dvsWrwxFs007r4UMUUI0mhTYJqh1qi9CjCZ8P9cp03HTcYL4KgTT0oGsBdHcsJqBeq4qVzETQ_EJ_E5CdspubTiUbpk6QdhqOJPmrWmJFn","width":3024}],"place_id":"ChIJ8yIZtLuLGGARrGzw8nX96zM","reference":"ChIJ8yIZtLuLGGARrGzw8nX96zM","scope":"GOOGLE","types":["locality","political"],"vicinity":"Minato City"}],"status":"OK"}
